[{
  "_id": {
    "$oid": "61b07833fc13ae0e32000172"
  },
  "GPS": {
    "latitude": 15.226768,
    "longitude": 102.496025
  },
  "city": "Phimai",
  "name": "Farrer Park Pharmacy",
  "type": "pharmacy",
  "address": "53416 Delladonna Place"
},{
  "_id": {
    "$oid": "61b07833fc13ae0e32000173"
  },
  "GPS": {
    "latitude": -6.3267969,
    "longitude": 107.2932396
  },
  "city": "Sukaharja",
  "name": "Fairbanks Memorial Hospital",
  "type": "hospital",
  "address": "4313 Pine View Point",
  "department": 8
},{
  "_id": {
    "$oid": "61b07833fc13ae0e32000174"
  },
  "GPS": {
    "latitude": 40.6918277,
    "longitude": 20.9424673
  },
  "city": "Progër",
  "name": "KK Outpatient Pharmacy",
  "type": "pharmacy",
  "address": "007 Delaware Crossing"
},{
  "_id": {
    "$oid": "61b07833fc13ae0e32000175"
  },
  "GPS": {
    "latitude": 10.5922194,
    "longitude": 123.4845632
  },
  "city": "Calatrava",
  "name": "Athens Limestone Hospital",
  "type": "hospital",
  "address": "45453 Mitchell Court",
  "department": 9
},{
  "_id": {
    "$oid": "61b07833fc13ae0e32000176"
  },
  "GPS": {
    "latitude": 17.1390992,
    "longitude": 102.9715346
  },
  "city": "Ban Phan Don",
  "name": "NATIONAL UNIVERSITY HOSPITAL (S) PTE LTD (RETAIL PHARMACY)",
  "type": "pharmacy",
  "address": "4455 Carberry Pass"
},{
  "_id": {
    "$oid": "61b07833fc13ae0e32000177"
  },
  "GPS": {
    "latitude": 10.2603809,
    "longitude": 13.2605763
  },
  "city": "Mubi",
  "name": "COVID CENTER 26",
  "type": "specialized center",
  "address": "776 Stone Corner Place"
},{
  "_id": {
    "$oid": "61b07833fc13ae0e32000178"
  },
  "GPS": {
    "latitude": -6.4045182,
    "longitude": 106.8341509
  },
  "city": "Jami",
  "name": "Tan Tock Seng Hospital (Outpatient & Retail Pharmacy)",
  "type": "pharmacy",
  "address": "5848 Welch Drive"
},{
  "_id": {
    "$oid": "61b07833fc13ae0e32000179"
  },
  "GPS": {
    "latitude": 57.5384659,
    "longitude": 25.4263618
  },
  "city": "Valmiera",
  "name": "SINGHEALTH POLY-OUTRAM",
  "type": "pharmacy",
  "address": "89 Waubesa Court"
},{
  "_id": {
    "$oid": "61b07833fc13ae0e3200017a"
  },
  "GPS": {
    "latitude": -7.55,
    "longitude": 111.116667
  },
  "city": "Balong",
  "name": "COVID CENTER 44",
  "type": "specialized center",
  "address": "27 Spaight Point"
},{
  "_id": {
    "$oid": "61b07833fc13ae0e3200017b"
  },
  "GPS": {
    "latitude": -7.9211147,
    "longitude": 111.4946618
  },
  "city": "Gandu",
  "name": "Citizens Baptist Medical Center",
  "type": "hospital",
  "address": "8162 Columbus Place",
  "department": 8
},{
  "_id": {
    "$oid": "61b07833fc13ae0e3200017c"
  },
  "GPS": {
    "latitude": 59.2420906,
    "longitude": 18.1015207
  },
  "city": "Kristinehamn",
  "name": "Canyon Vista Medical Center",
  "type": "hospital",
  "address": "5393 Main Place",
  "department": 8
},{
  "_id": {
    "$oid": "61b07833fc13ae0e3200017d"
  },
  "GPS": {
    "latitude": 35.1899597,
    "longitude": 25.7164166
  },
  "city": "Áyios Nikólaos",
  "name": "Northeast Alabama Regional Medical Center",
  "type": "hospital",
  "address": "2378 Sunnyside Hill",
  "department": 3
},{
  "_id": {
    "$oid": "61b07833fc13ae0e3200017e"
  },
  "GPS": {
    "latitude": 51.8971298,
    "longitude": 17.7805434
  },
  "city": "Pleszew",
  "name": "Ketchikan Medical Center",
  "type": "hospital",
  "address": "00 Esch Pass",
  "department": 9
},{
  "_id": {
    "$oid": "61b07833fc13ae0e3200017f"
  },
  "GPS": {
    "latitude": 55.0356736,
    "longitude": 23.5860512
  },
  "city": "Vilkija",
  "name": "COVID CENTER 35",
  "type": "specialized center",
  "address": "1 Glacier Hill Hill"
},{
  "_id": {
    "$oid": "61b07833fc13ae0e32000180"
  },
  "GPS": {
    "latitude": -9.6551739,
    "longitude": 124.2699432
  },
  "city": "Tutem",
  "name": "Verde Valley Medical Center",
  "type": "hospital",
  "address": "701 Butternut Center",
  "department": 9
},{
  "_id": {
    "$oid": "61b07833fc13ae0e32000181"
  },
  "GPS": {
    "latitude": 39.9990626,
    "longitude": -83.0173386
  },
  "city": "Columbus",
  "name": "Stringfellow Memorial Hospital",
  "type": "hospital",
  "address": "9 Garrison Center",
  "department": 10
},{
  "_id": {
    "$oid": "61b07833fc13ae0e32000182"
  },
  "GPS": {
    "latitude": -15.67164,
    "longitude": -74.536774
  },
  "city": "Yauca",
  "name": "Cullman Regional Medical Center",
  "type": "hospital",
  "address": "839 Forest Dale Street",
  "department": 2
},{
  "_id": {
    "$oid": "61b07833fc13ae0e32000183"
  },
  "GPS": {
    "latitude": 60.1946148,
    "longitude": 24.9584208
  },
  "city": "Pernå",
  "name": "NATIONAL HEART CENTRE PHARMACY",
  "type": "pharmacy",
  "address": "6 Eagan Park"
},{
  "_id": {
    "$oid": "61b07833fc13ae0e32000184"
  },
  "GPS": {
    "latitude": 36.6085381,
    "longitude": 44.5238693
  },
  "city": "Rāwandūz",
  "name": "Specialist Compounding Pharmacy Pte Ltd",
  "type": "pharmacy",
  "address": "5 Sheridan Parkway"
},{
  "_id": {
    "$oid": "61b07833fc13ae0e32000185"
  },
  "GPS": {
    "latitude": 40.0480392,
    "longitude": 23.4134501
  },
  "city": "Kassándreia",
  "name": "COVID CENTER 55",
  "type": "specialized center",
  "address": "4512 Bashford Hill"
},{
  "_id": {
    "$oid": "61b07833fc13ae0e32000186"
  },
  "GPS": {
    "latitude": 2.0454995,
    "longitude": 100.6365483
  },
  "city": "Rantaupanjangkiri",
  "name": "Shoals Hospital",
  "type": "hospital",
  "address": "882 Stuart Point",
  "department": 2
},{
  "_id": {
    "$oid": "61b07833fc13ae0e32000187"
  },
  "GPS": {
    "latitude": 51.669945,
    "longitude": 16.5376529
  },
  "city": "Góra",
  "name": "COVID CENTER 7",
  "type": "specialized center",
  "address": "13223 Arapahoe Center"
},{
  "_id": {
    "$oid": "61b07833fc13ae0e32000188"
  },
  "GPS": {
    "latitude": 33.157445,
    "longitude": 106.834805
  },
  "city": "Xinjiezi",
  "name": "MOUNT ELIZABETH NOVENA HOSPITAL PHARMACY",
  "type": "pharmacy",
  "address": "0 Arkansas Avenue"
},{
  "_id": {
    "$oid": "61b07833fc13ae0e32000189"
  },
  "GPS": {
    "latitude": 14.8572534,
    "longitude": 120.6213379
  },
  "city": "Malusac",
  "name": "COVID CENTER 21",
  "type": "specialized center",
  "address": "77 Pawling Crossing"
},{
  "_id": {
    "$oid": "61b07833fc13ae0e3200018a"
  },
  "GPS": {
    "latitude": 9.4362547,
    "longitude": 123.1893864
  },
  "city": "Silab",
  "name": "COVID CENTER 45",
  "type": "specialized center",
  "address": "946 Forster Way"
},{
  "_id": {
    "$oid": "61b07833fc13ae0e3200018b"
  },
  "GPS": {
    "latitude": -6.3398714,
    "longitude": 108.2970692
  },
  "city": "Sindang",
  "name": "COVID CENTER 6",
  "type": "specialized center",
  "address": "8655 Browning Crossing"
},{
  "_id": {
    "$oid": "61b07833fc13ae0e3200018c"
  },
  "GPS": {
    "latitude": 31.520703,
    "longitude": 120.270218
  },
  "city": "Lihu",
  "name": "COVID CENTER 31",
  "type": "specialized center",
  "address": "739 Melvin Terrace"
},{
  "_id": {
    "$oid": "61b07833fc13ae0e3200018d"
  },
  "GPS": {
    "latitude": -7.698725,
    "longitude": 113.8465758
  },
  "city": "Pasirputih",
  "name": "Washington County Hospital",
  "type": "hospital",
  "address": "1311 Schlimgen Point",
  "department": 1
},{
  "_id": {
    "$oid": "61b07833fc13ae0e3200018e"
  },
  "GPS": {
    "latitude": 34.341574,
    "longitude": 108.93977
  },
  "city": "Xi’an",
  "name": "NATIONAL HEART CENTRE PHARMACY",
  "type": "pharmacy",
  "address": "74 Surrey Lane"
},{
  "_id": {
    "$oid": "61b07833fc13ae0e3200018f"
  },
  "GPS": {
    "latitude": 30.5911589,
    "longitude": 50.234745
  },
  "city": "Behbahān",
  "name": "KK Emergency Pharmacy",
  "type": "pharmacy",
  "address": "57 Redwing Hill"
},{
  "_id": {
    "$oid": "61b07833fc13ae0e32000190"
  },
  "GPS": {
    "latitude": 40.9392676,
    "longitude": 46.3748931
  },
  "city": "Qırmızı Samux",
  "name": "COVID CENTER 32",
  "type": "specialized center",
  "address": "09536 Melody Way"
},{
  "_id": {
    "$oid": "61b07833fc13ae0e32000191"
  },
  "GPS": {
    "latitude": 13.4945205,
    "longitude": 102.2776838
  },
  "city": "Khlong Hat",
  "name": "Jackson Medical Center",
  "type": "hospital",
  "address": "01712 Heath Lane",
  "department": 9
},{
  "_id": {
    "$oid": "61b07833fc13ae0e32000192"
  },
  "GPS": {
    "latitude": 15.9858807,
    "longitude": 120.5721737
  },
  "city": "Urdaneta",
  "name": "Providence Hospital",
  "type": "hospital",
  "address": "91 Magdeline Drive",
  "department": 7
},{
  "_id": {
    "$oid": "61b07833fc13ae0e32000193"
  },
  "GPS": {
    "latitude": 31.926481,
    "longitude": 35.236911
  },
  "city": "Baytīn",
  "name": "COVID CENTER 45",
  "type": "specialized center",
  "address": "50993 Comanche Hill"
},{
  "_id": {
    "$oid": "61b07833fc13ae0e32000194"
  },
  "GPS": {
    "latitude": 17.7177253,
    "longitude": 102.1175404
  },
  "city": "Nam Som",
  "name": "D C H Regional Medical Center",
  "type": "hospital",
  "address": "10 Dixon Lane",
  "department": 1
},{
  "_id": {
    "$oid": "61b07833fc13ae0e32000195"
  },
  "GPS": {
    "latitude": -7.5629468,
    "longitude": 111.4559084
  },
  "city": "Tebon",
  "name": "Mount Alvernia Hospital (Main Pharmacy)",
  "type": "pharmacy",
  "address": "74999 Miller Court"
},{
  "_id": {
    "$oid": "61b07833fc13ae0e32000196"
  },
  "GPS": {
    "latitude": 15.1048617,
    "longitude": 120.9216776
  },
  "city": "Mapaniqui",
  "name": "Samuel Simmonds Memorial Hospital",
  "type": "hospital",
  "address": "429 Armistice Crossing",
  "department": 9
},{
  "_id": {
    "$oid": "61b07833fc13ae0e32000197"
  },
  "GPS": {
    "latitude": 30.761853,
    "longitude": 117.007039
  },
  "city": "Liantan",
  "name": "COVID CENTER 15",
  "type": "specialized center",
  "address": "42 Dottie Trail"
},{
  "_id": {
    "$oid": "61b07833fc13ae0e32000198"
  },
  "GPS": {
    "latitude": 41.9986907,
    "longitude": 21.4874715
  },
  "city": "Čair",
  "name": "COVID CENTER 21",
  "type": "specialized center",
  "address": "68 Talisman Hill"
},{
  "_id": {
    "$oid": "61b07833fc13ae0e32000199"
  },
  "GPS": {
    "latitude": 48.8959487,
    "longitude": 2.2679278
  },
  "city": "Neuilly-sur-Seine",
  "name": "COVID CENTER 49",
  "type": "specialized center",
  "address": "53 Elka Street"
},{
  "_id": {
    "$oid": "61b07833fc13ae0e3200019a"
  },
  "GPS": {
    "latitude": 7.0389957,
    "longitude": 126.4497814
  },
  "city": "Tarragona",
  "name": "Northeast Alabama Regional Medical Center",
  "type": "hospital",
  "address": "068 Kinsman Crossing",
  "department": 3
},{
  "_id": {
    "$oid": "61b07833fc13ae0e3200019b"
  },
  "GPS": {
    "latitude": 5.87568,
    "longitude": 121.29146
  },
  "city": "Kanlagay",
  "name": "CGH Pharmacy B",
  "type": "pharmacy",
  "address": "23 Maryland Point"
},{
  "_id": {
    "$oid": "61b07833fc13ae0e3200019c"
  },
  "GPS": {
    "latitude": 41.7047388,
    "longitude": 24.3697976
  },
  "city": "Devin",
  "name": "COVID CENTER 18",
  "type": "specialized center",
  "address": "87 Golf View Avenue"
},{
  "_id": {
    "$oid": "61b07833fc13ae0e3200019d"
  },
  "GPS": {
    "latitude": 38.0515795,
    "longitude": -87.6876112
  },
  "city": "Evansville",
  "name": "Scottsdale Osborn Medical Center",
  "type": "hospital",
  "address": "048 Cambridge Place",
  "department": 1
},{
  "_id": {
    "$oid": "61b07833fc13ae0e3200019e"
  },
  "GPS": {
    "latitude": 14.6100657,
    "longitude": 121.0078432
  },
  "city": "New Cebu",
  "name": "COVID CENTER 4",
  "type": "specialized center",
  "address": "6724 Swallow Hill"
},{
  "_id": {
    "$oid": "61b07833fc13ae0e3200019f"
  },
  "GPS": {
    "latitude": 40.3258678,
    "longitude": 23.9813901
  },
  "city": "Ouranoupolis",
  "name": "Wrangell Medical Center",
  "type": "hospital",
  "address": "99 Becker Point",
  "department": 5
},{
  "_id": {
    "$oid": "61b07833fc13ae0e320001a0"
  },
  "GPS": {
    "latitude": 26.641315,
    "longitude": 100.222545
  },
  "city": "Baisha",
  "name": "Alchemy Pharmacy",
  "type": "pharmacy",
  "address": "8 Mcbride Parkway"
},{
  "_id": {
    "$oid": "61b07833fc13ae0e320001a1"
  },
  "GPS": {
    "latitude": -11.748639,
    "longitude": -75.4854472
  },
  "city": "Pancan",
  "name": "WELCIA-BHG LOT ONE",
  "type": "pharmacy",
  "address": "92021 Nelson Court"
},{
  "_id": {
    "$oid": "61b07833fc13ae0e320001a2"
  },
  "GPS": {
    "latitude": -23.351784,
    "longitude": -47.6931718
  },
  "city": "Iperó",
  "name": "COVID CENTER 34",
  "type": "specialized center",
  "address": "810 Helena Road"
},{
  "_id": {
    "$oid": "61b07833fc13ae0e320001a3"
  },
  "GPS": {
    "latitude": 24.3520171,
    "longitude": 116.6930225
  },
  "city": "Hetou",
  "name": "COVID CENTER 21",
  "type": "specialized center",
  "address": "34 Lillian Plaza"
},{
  "_id": {
    "$oid": "61b07833fc13ae0e320001a4"
  },
  "GPS": {
    "latitude": 56.3615314,
    "longitude": 41.0836902
  },
  "city": "Novki",
  "name": "Alaska Native Medical Center",
  "type": "hospital",
  "address": "3 Melvin Road",
  "department": 3
},{
  "_id": {
    "$oid": "61b07833fc13ae0e320001a5"
  },
  "GPS": {
    "latitude": -8.605,
    "longitude": 122.743
  },
  "city": "Watubuku",
  "name": "MT ALVERNIA HOSPITAL RETAIL PHARMACY",
  "type": "pharmacy",
  "address": "2 Farwell Terrace"
},{
  "_id": {
    "$oid": "61b07833fc13ae0e320001a6"
  },
  "GPS": {
    "latitude": 42.060385,
    "longitude": 120.665667
  },
  "city": "Loujiadian",
  "name": "COVID CENTER 11",
  "type": "specialized center",
  "address": "030 Nelson Junction"
},{
  "_id": {
    "$oid": "61b07833fc13ae0e320001a7"
  },
  "GPS": {
    "latitude": 22.919228,
    "longitude": 115.652151
  },
  "city": "Liufeng",
  "name": "Citizens Baptist Medical Center",
  "type": "hospital",
  "address": "81350 Browning Plaza",
  "department": 8
},{
  "_id": {
    "$oid": "61b07833fc13ae0e320001a8"
  },
  "GPS": {
    "latitude": 24.945573,
    "longitude": 114.030161
  },
  "city": "Shensuo",
  "name": "COVID CENTER 43",
  "type": "specialized center",
  "address": "64450 Spenser Road"
},{
  "_id": {
    "$oid": "61b07833fc13ae0e320001a9"
  },
  "GPS": {
    "latitude": 31.364902,
    "longitude": 108.249509
  },
  "city": "Gaoqiao",
  "name": "MOUNT ELIZABETH NOVENA HOSPITAL PHARMACY",
  "type": "pharmacy",
  "address": "55287 Swallow Place"
},{
  "_id": {
    "$oid": "61b07833fc13ae0e320001aa"
  },
  "GPS": {
    "latitude": 14.6965,
    "longitude": -87.578697
  },
  "city": "Jamalteca",
  "name": "University Of Alabama Hospital",
  "type": "hospital",
  "address": "631 Melrose Alley",
  "department": 3
},{
  "_id": {
    "$oid": "61b07833fc13ae0e320001ab"
  },
  "GPS": {
    "latitude": -10.333333,
    "longitude": -77.45
  },
  "city": "Congas",
  "name": "Cullman Regional Medical Center",
  "type": "hospital",
  "address": "6011 Lukken Parkway",
  "department": 3
},{
  "_id": {
    "$oid": "61b07833fc13ae0e320001ac"
  },
  "GPS": {
    "latitude": 29.234232,
    "longitude": 116.835701
  },
  "city": "Youcheng",
  "name": "COVID CENTER 53",
  "type": "specialized center",
  "address": "7 Coleman Place"
},{
  "_id": {
    "$oid": "61b07833fc13ae0e320001ad"
  },
  "GPS": {
    "latitude": 42.3604802,
    "longitude": -71.0590624
  },
  "city": "Boston",
  "name": "COVID CENTER 20",
  "type": "specialized center",
  "address": "60731 Prairie Rose Circle"
},{
  "_id": {
    "$oid": "61b07833fc13ae0e320001ae"
  },
  "GPS": {
    "latitude": 25.63273,
    "longitude": 118.980277
  },
  "city": "Zhuangbian",
  "name": "COVID CENTER 23",
  "type": "specialized center",
  "address": "56 Graedel Pass"
},{
  "_id": {
    "$oid": "61b07833fc13ae0e320001af"
  },
  "GPS": {
    "latitude": -9.7239549,
    "longitude": 124.272721
  },
  "city": "Obesi",
  "name": "Jurong Medical Centre Pharmacy",
  "type": "pharmacy",
  "address": "41 David Crossing"
},{
  "_id": {
    "$oid": "61b07833fc13ae0e320001b0"
  },
  "GPS": {
    "latitude": 39.193073,
    "longitude": 112.865891
  },
  "city": "Yanmen",
  "name": "Mobile Infirmary Medical Center",
  "type": "hospital",
  "address": "27746 Kenwood Pass",
  "department": 1
},{
  "_id": {
    "$oid": "61b07833fc13ae0e320001b1"
  },
  "GPS": {
    "latitude": 23.131797,
    "longitude": 113.407143
  },
  "city": "Huangcun",
  "name": "Amber Compounding Pharmacy Pte Ltd",
  "type": "pharmacy",
  "address": "42814 Florence Street"
},{
  "_id": {
    "$oid": "61b07833fc13ae0e320001b2"
  },
  "GPS": {
    "latitude": -40.6607937,
    "longitude": -72.6131562
  },
  "city": "Puyehue",
  "name": "Tan Tock Seng Hospital (Pharmacy Level 2)",
  "type": "pharmacy",
  "address": "2 Annamark Crossing"
},{
  "_id": {
    "$oid": "61b07833fc13ae0e320001b3"
  },
  "GPS": {
    "latitude": -13.1612425,
    "longitude": -74.2152331
  },
  "city": "Conchopata",
  "name": "WATSONS PERSONAL CARE STORES (TIONG BAHRU PLAZA)",
  "type": "pharmacy",
  "address": "625 Little Fleur Court"
},{
  "_id": {
    "$oid": "61b07833fc13ae0e320001b4"
  },
  "GPS": {
    "latitude": -33.4442688,
    "longitude": -70.7233493
  },
  "city": "Lo Prado",
  "name": "Princeton Pharmacy (S) Pte Ltd",
  "type": "pharmacy",
  "address": "960 Arrowood Crossing"
},{
  "_id": {
    "$oid": "61b07833fc13ae0e320001b5"
  },
  "GPS": {
    "latitude": 58.0312993,
    "longitude": 38.6043668
  },
  "city": "Rybinsk",
  "name": "COVID CENTER 35",
  "type": "specialized center",
  "address": "77 Northwestern Point"
},{
  "_id": {
    "$oid": "61b07833fc13ae0e320001b6"
  },
  "GPS": {
    "latitude": 29.3738721,
    "longitude": 71.6934843
  },
  "city": "Yazman",
  "name": "Healing Hub @ Ang Mo Kio - Thye Hua Kwan Hospital",
  "type": "pharmacy",
  "address": "873 Westend Circle"
},{
  "_id": {
    "$oid": "61b07833fc13ae0e320001b7"
  },
  "GPS": {
    "latitude": 43.1555152,
    "longitude": 19.1226018
  },
  "city": "Žabljak",
  "address": "852 Forest Dale Lane"
},{
  "_id": {
    "$oid": "61b07833fc13ae0e320001b8"
  },
  "GPS": {
    "latitude": 40.9447008,
    "longitude": -7.3883126
  },
  "city": "Antas",
  "name": "Tanner Medical Center-east Alabama",
  "type": "hospital",
  "address": "1 Lyons Center",
  "department": 5
},{
  "_id": {
    "$oid": "61b07833fc13ae0e320001b9"
  },
  "GPS": {
    "latitude": -8.1924285,
    "longitude": 112.7011258
  },
  "city": "Mentaraman Satu",
  "name": "St. Mary's Hospital",
  "type": "hospital",
  "address": "30 Portage Court",
  "department": 4
},{
  "_id": {
    "$oid": "61b07833fc13ae0e320001ba"
  },
  "GPS": {
    "latitude": -7.0379245,
    "longitude": 108.4187029
  },
  "city": "Sakerta Timur",
  "name": "Georgiana Medical Center",
  "type": "hospital",
  "address": "409 Everett Pass",
  "department": 6
},{
  "_id": {
    "$oid": "61b07833fc13ae0e320001bb"
  },
  "GPS": {
    "latitude": 21.850061,
    "longitude": 111.197459
  },
  "city": "Shipaidong",
  "name": "J Paul Jones Hospital",
  "type": "hospital",
  "address": "284 Summer Ridge Court",
  "department": 8
},{
  "_id": {
    "$oid": "61b07833fc13ae0e320001bc"
  },
  "GPS": {
    "latitude": 14.3355782,
    "longitude": -87.6457807
  },
  "city": "Yarumela",
  "name": "COVID CENTER 53",
  "type": "specialized center",
  "address": "45 Oak Junction"
},{
  "_id": {
    "$oid": "61b07833fc13ae0e320001bd"
  },
  "GPS": {
    "latitude": 37.513068,
    "longitude": 122.120419
  },
  "city": "Waihai",
  "name": "National University Hospital (s) Pte Ltd (Pharmacy @ NCIS)",
  "type": "pharmacy",
  "address": "9 Kedzie Pass"
},{
  "_id": {
    "$oid": "61b07833fc13ae0e320001be"
  },
  "GPS": {
    "latitude": 9.3295342,
    "longitude": 124.6133794
  },
  "city": "Balingoan",
  "name": "Vaughan Regional Medical Center Parkway Campus",
  "type": "hospital",
  "address": "85167 Waxwing Drive",
  "department": 3
},{
  "_id": {
    "$oid": "61b07833fc13ae0e320001bf"
  },
  "GPS": {
    "latitude": 53.1294318,
    "longitude": 87.4792556
  },
  "city": "Novokuz’minki",
  "name": "Princeton Baptist Medical Center",
  "type": "hospital",
  "address": "26 Del Mar Alley",
  "department": 9
},{
  "_id": {
    "$oid": "61b07833fc13ae0e320001c0"
  },
  "GPS": {
    "latitude": 23.1833095,
    "longitude": 113.358579
  },
  "city": "Xomong",
  "name": "COVID CENTER 40",
  "type": "specialized center",
  "address": "025 Helena Road"
},{
  "_id": {
    "$oid": "61b07833fc13ae0e320001c1"
  },
  "GPS": {
    "latitude": -0.819175,
    "longitude": 120.167297
  },
  "city": "Parigi",
  "name": "COVID CENTER 39",
  "type": "specialized center",
  "address": "43 Melrose Park"
},{
  "_id": {
    "$oid": "61b07833fc13ae0e320001c2"
  },
  "GPS": {
    "latitude": 44.8245862,
    "longitude": 19.771335
  },
  "city": "Platičevo",
  "name": "Raffles Health Holland V",
  "type": "pharmacy",
  "address": "9 1st Point"
},{
  "_id": {
    "$oid": "61b07833fc13ae0e320001c3"
  },
  "GPS": {
    "latitude": -16.5062723,
    "longitude": -151.7495305
  },
  "city": "Vaitape",
  "name": "Marshall Medical Center South",
  "type": "hospital",
  "address": "08 Center Street",
  "department": 1
},{
  "_id": {
    "$oid": "61b07833fc13ae0e320001c4"
  },
  "GPS": {
    "latitude": 34.9565646,
    "longitude": 135.7023712
  },
  "city": "Mukō",
  "name": "WELCIA-BHG LOT ONE",
  "type": "pharmacy",
  "address": "40 Laurel Center"
},{
  "_id": {
    "$oid": "61b07833fc13ae0e320001c5"
  },
  "GPS": {
    "latitude": -17.4328946,
    "longitude": -41.9989718
  },
  "city": "Novo Cruzeiro",
  "name": "Floyd Cherokee Medical Center",
  "type": "hospital",
  "address": "0 Crowley Alley",
  "department": 4
},{
  "_id": {
    "$oid": "61b07833fc13ae0e320001c6"
  },
  "GPS": {
    "latitude": 35.1083109,
    "longitude": 136.1458137
  },
  "city": "Ōmihachiman",
  "name": "COVID CENTER 15",
  "type": "specialized center",
  "address": "7 Graceland Plaza"
},{
  "_id": {
    "$oid": "61b07833fc13ae0e320001c7"
  },
  "GPS": {
    "latitude": 10.729632,
    "longitude": 124.795761
  },
  "city": "Kilim",
  "name": "Banner - University Medical Center Phoenix",
  "type": "hospital",
  "address": "0756 Cambridge Parkway",
  "department": 7
},{
  "_id": {
    "$oid": "61b07833fc13ae0e320001c8"
  },
  "GPS": {
    "latitude": -23.047822,
    "longitude": -50.068456
  },
  "city": "Cambará",
  "name": "COVID CENTER 14",
  "type": "specialized center",
  "address": "2792 Corry Pass"
},{
  "_id": {
    "$oid": "61b07833fc13ae0e320001c9"
  },
  "GPS": {
    "latitude": 38.1162631,
    "longitude": 140.8585745
  },
  "city": "Asahi",
  "name": "SINGAPORE NATIONAL EYE CENTRE PTE LTD",
  "type": "pharmacy",
  "address": "5 Moland Crossing"
},{
  "_id": {
    "$oid": "61b07833fc13ae0e320001ca"
  },
  "GPS": {
    "latitude": 30.6907753,
    "longitude": 49.8240194
  },
  "city": "Aghajari",
  "name": "COVID CENTER 57",
  "type": "specialized center",
  "address": "41075 Park Meadow Point"
},{
  "_id": {
    "$oid": "61b07833fc13ae0e320001cb"
  },
  "GPS": {
    "latitude": 37.1597899,
    "longitude": -8.0359507
  },
  "city": "Valtelheiro",
  "name": "St Vincent's Chilton",
  "type": "hospital",
  "address": "539 International Center",
  "department": 3
},{
  "_id": {
    "$oid": "61b07833fc13ae0e320001cc"
  },
  "GPS": {
    "latitude": 19.5531189,
    "longitude": -98.8755659
  },
  "city": "San Juan",
  "name": "GRACE HEALTHCARE",
  "type": "pharmacy",
  "address": "2 Utah Circle"
},{
  "_id": {
    "$oid": "61b07833fc13ae0e320001cd"
  },
  "GPS": {
    "latitude": 29.9193861,
    "longitude": 73.0747872
  },
  "city": "Chishtiān Mandi",
  "name": "Decatur Morgan Hospital-decatur Campus",
  "type": "hospital",
  "address": "3 Morrow Pass",
  "department": 8
},{
  "_id": {
    "$oid": "61b07833fc13ae0e320001ce"
  },
  "GPS": {
    "latitude": 25.66788,
    "longitude": 110.547966
  },
  "city": "Baitao",
  "name": "CONCORD HEALTHCARE RETAIL PHARMACY",
  "type": "pharmacy",
  "address": "43 Ridgeview Circle"
},{
  "_id": {
    "$oid": "61b07833fc13ae0e320001cf"
  },
  "GPS": {
    "latitude": 34.21422,
    "longitude": 69.10026
  },
  "city": "Muḩammad Āghah Wuluswālī",
  "name": "L V Stabler Memorial Hospital",
  "type": "hospital",
  "address": "3 Monument Point",
  "department": 9
},{
  "_id": {
    "$oid": "61b07833fc13ae0e320001d0"
  },
  "GPS": {
    "latitude": 35.6046794,
    "longitude": 139.730028
  },
  "city": "Ōi",
  "name": "Marshall Medical Center South",
  "type": "hospital",
  "address": "3258 Crescent Oaks Street",
  "department": 10
},{
  "_id": {
    "$oid": "61b07833fc13ae0e320001d1"
  },
  "GPS": {
    "latitude": 18.9384732,
    "longitude": -70.407981
  },
  "city": "Quisqueya",
  "name": "Andalusia Health",
  "type": "hospital",
  "address": "97 Meadow Ridge Center",
  "department": 2
},{
  "_id": {
    "$oid": "61b07833fc13ae0e320001d2"
  },
  "GPS": {
    "latitude": 6.961969,
    "longitude": -75.4190689
  },
  "city": "Yarumal",
  "name": "PARKWAY EAST HOSPITAL PHARMACY",
  "type": "pharmacy",
  "address": "5 1st Park"
},{
  "_id": {
    "$oid": "61b07833fc13ae0e320001d3"
  },
  "GPS": {
    "latitude": -7.2558406,
    "longitude": 112.525711
  },
  "city": "Kemendung",
  "name": "COVID CENTER 35",
  "type": "specialized center",
  "address": "7 Crest Line Junction"
},{
  "_id": {
    "$oid": "61b07833fc13ae0e320001d4"
  },
  "GPS": {
    "latitude": -10.5792295,
    "longitude": -37.745028
  },
  "city": "Pinhão",
  "name": "Dale Medical Center",
  "type": "hospital",
  "address": "72 Caliangt Crossing",
  "department": 7
},{
  "_id": {
    "$oid": "61b07833fc13ae0e320001d5"
  },
  "GPS": {
    "latitude": 30.63963,
    "longitude": 114.385538
  },
  "city": "Qingshan",
  "name": "Specialist Compounding Pharmacy Pte Ltd",
  "type": "pharmacy",
  "address": "6797 Kingsford Crossing"
},{
  "_id": {
    "$oid": "61b07833fc13ae0e320001d6"
  },
  "GPS": {
    "latitude": 36.6919385,
    "longitude": 38.9511518
  },
  "city": "Tall Abyaḑ",
  "name": "Raffles Health Holland V",
  "type": "pharmacy",
  "address": "8090 Emmet Way"
},{
  "_id": {
    "$oid": "61b07833fc13ae0e320001d7"
  },
  "GPS": {
    "latitude": 4.6096768,
    "longitude": 101.1064003
  },
  "city": "Ipoh",
  "name": "Clinic B Pharmacy",
  "type": "pharmacy",
  "address": "58 Randy Avenue"
},{
  "_id": {
    "$oid": "61b07833fc13ae0e320001d8"
  },
  "GPS": {
    "latitude": 41.0394198,
    "longitude": -8.5359207
  },
  "city": "Lavadorinhos",
  "name": "SGH OUTPATIENT PHARMACY (BLK 3)",
  "type": "pharmacy",
  "address": "82 Derek Trail"
},{
  "_id": {
    "$oid": "61b07833fc13ae0e320001d9"
  },
  "GPS": {
    "latitude": 56.071894,
    "longitude": 37.0625324
  },
  "city": "Povarovo",
  "name": "St. Mary's Hospital",
  "type": "hospital",
  "address": "59182 Arapahoe Park",
  "department": 8
},{
  "_id": {
    "$oid": "61b07833fc13ae0e320001da"
  },
  "GPS": {
    "latitude": 13.7876294,
    "longitude": 101.3885001
  },
  "city": "Phanom Sarakham",
  "name": "COVID CENTER 47",
  "type": "specialized center",
  "address": "08 Orin Point"
},{
  "_id": {
    "$oid": "61b07833fc13ae0e320001db"
  },
  "GPS": {
    "latitude": 18.714928,
    "longitude": 110.401814
  },
  "city": "Dong’ao",
  "name": "Nishino Pharmacy (Takashimaya)",
  "type": "pharmacy",
  "address": "3825 Kinsman Center"
},{
  "_id": {
    "$oid": "61b07833fc13ae0e320001dc"
  },
  "GPS": {
    "latitude": 55.1936526,
    "longitude": 75.9684541
  },
  "city": "Tatarsk",
  "name": "Tan Tock Seng Hospital (Pharmacy Level 2)",
  "type": "pharmacy",
  "address": "82 Moose Parkway"
},{
  "_id": {
    "$oid": "61b07833fc13ae0e320001dd"
  },
  "GPS": {
    "latitude": 55.5192748,
    "longitude": 26.3223328
  },
  "city": "Dūkštas",
  "name": "Clinic B Pharmacy",
  "type": "pharmacy",
  "address": "418 John Wall Junction"
},{
  "_id": {
    "$oid": "61b07833fc13ae0e320001de"
  },
  "GPS": {
    "latitude": 37.444498,
    "longitude": 114.498761
  },
  "city": "Lincheng",
  "name": "Monroe County Hospital",
  "type": "hospital",
  "address": "71987 Bartelt Road",
  "department": 10
},{
  "_id": {
    "$oid": "61b07833fc13ae0e320001df"
  },
  "GPS": {
    "latitude": 14.5396049,
    "longitude": 99.9970034
  },
  "city": "Suphan Buri",
  "name": "COVID CENTER 24",
  "type": "specialized center",
  "address": "42 Algoma Alley"
},{
  "_id": {
    "$oid": "61b07833fc13ae0e320001e0"
  },
  "GPS": {
    "latitude": 21.355574,
    "longitude": 106.8355372
  },
  "city": "An Châu",
  "name": "Choctaw General Hospital",
  "type": "hospital",
  "address": "4032 Haas Alley",
  "department": 1
},{
  "_id": {
    "$oid": "61b07833fc13ae0e320001e1"
  },
  "GPS": {
    "latitude": 25.748455,
    "longitude": 116.747009
  },
  "city": "Gechuan",
  "name": "Mizell Memorial Hospital",
  "type": "hospital",
  "address": "008 Comanche Hill",
  "department": 2
},{
  "_id": {
    "$oid": "61b07833fc13ae0e320001e2"
  },
  "GPS": {
    "latitude": 23.028956,
    "longitude": 113.143441
  },
  "city": "Nanwai",
  "name": "Jurong Medical Centre Pharmacy",
  "type": "pharmacy",
  "address": "22027 Meadow Valley Center"
},{
  "_id": {
    "$oid": "61b07833fc13ae0e320001e3"
  },
  "GPS": {
    "latitude": 29.295,
    "longitude": 47.93306
  },
  "city": "Ar Rābiyah",
  "name": "Fairbanks Memorial Hospital",
  "type": "hospital",
  "address": "24976 Shelley Terrace",
  "department": 9
},{
  "_id": {
    "$oid": "61b07834fc13ae0e320001e4"
  },
  "GPS": {
    "latitude": 43.0429124,
    "longitude": 1.9038837
  },
  "city": "Lyon",
  "name": "ALPS PHARMACY",
  "type": "pharmacy",
  "address": "13 Vernon Hill"
},{
  "_id": {
    "$oid": "61b07834fc13ae0e320001e5"
  },
  "GPS": {
    "latitude": 53.175543,
    "longitude": 21.296838
  },
  "city": "Baranowo",
  "name": "COVID CENTER 22",
  "type": "specialized center",
  "address": "3420 Bashford Way"
},{
  "_id": {
    "$oid": "61b07834fc13ae0e320001e6"
  },
  "GPS": {
    "latitude": 13.1782149,
    "longitude": 30.2166519
  },
  "city": "El Obeid",
  "name": "Crenshaw Community Hospital",
  "type": "hospital",
  "address": "32 Schurz Alley",
  "department": 1
},{
  "_id": {
    "$oid": "61b07834fc13ae0e320001e7"
  },
  "GPS": {
    "latitude": -3.9318403,
    "longitude": 114.9754175
  },
  "city": "Jorong",
  "name": "COVID CENTER 5",
  "type": "specialized center",
  "address": "8 Stone Corner Junction"
},{
  "_id": {
    "$oid": "61b07834fc13ae0e320001e8"
  },
  "GPS": {
    "latitude": 25.5020583,
    "longitude": 117.3701447
  },
  "city": "Huhe",
  "name": "COVID CENTER 8",
  "type": "specialized center",
  "address": "28990 Jana Junction"
},{
  "_id": {
    "$oid": "61b07834fc13ae0e320001e9"
  },
  "GPS": {
    "latitude": 10.2995028,
    "longitude": -61.175278
  },
  "city": "Rio Claro",
  "name": "COVID CENTER 42",
  "type": "specialized center",
  "address": "9748 Bluestem Point"
},{
  "_id": {
    "$oid": "61b07834fc13ae0e320001ea"
  },
  "GPS": {
    "latitude": 13.7754325,
    "longitude": 100.5127381
  },
  "city": "Dusit",
  "name": "COVID CENTER 24",
  "type": "specialized center",
  "address": "49 Manley Terrace"
},{
  "_id": {
    "$oid": "61b07834fc13ae0e320001eb"
  },
  "GPS": {
    "latitude": 37.56702,
    "longitude": 68.44668
  },
  "city": "Gharavŭtí",
  "name": "Clay County Hospital",
  "type": "hospital",
  "address": "25 Homewood Crossing",
  "department": 4
},{
  "_id": {
    "$oid": "61b07834fc13ae0e320001ec"
  },
  "GPS": {
    "latitude": 27.5828698,
    "longitude": 85.5097226
  },
  "city": "Panaoti",
  "name": "COVID CENTER 25",
  "type": "specialized center",
  "address": "83306 Forest Run Street"
},{
  "_id": {
    "$oid": "61b07834fc13ae0e320001ed"
  },
  "GPS": {
    "latitude": 37.1845893,
    "longitude": 136.9002781
  },
  "city": "Kashima",
  "name": "Maniilaq Health Center",
  "type": "hospital",
  "address": "7 Colorado Terrace",
  "department": 6
},{
  "_id": {
    "$oid": "61b07834fc13ae0e320001ee"
  },
  "GPS": {
    "latitude": 55.9015576,
    "longitude": 52.3550104
  },
  "city": "Mendeleyevsk",
  "name": "COVID CENTER 29",
  "type": "specialized center",
  "address": "2583 Northfield Trail"
},{
  "_id": {
    "$oid": "61b07834fc13ae0e320001ef"
  },
  "GPS": {
    "latitude": 38.05106,
    "longitude": 114.463347
  },
  "city": "Xinhua",
  "name": "MOHAMED MUSTAFA & SAMSUDDIN CO PTE LTD (MUSTAFA CENTRE)",
  "type": "pharmacy",
  "address": "399 Waywood Junction"
},{
  "_id": {
    "$oid": "61b07834fc13ae0e320001f0"
  },
  "GPS": {
    "latitude": 39.2674443,
    "longitude": 141.8622297
  },
  "city": "Kamaishi",
  "name": "COVID CENTER 55",
  "type": "specialized center",
  "address": "17855 Sommers Terrace"
},{
  "_id": {
    "$oid": "61b07834fc13ae0e320001f1"
  },
  "GPS": {
    "latitude": 49.6470903,
    "longitude": 18.1621577
  },
  "city": "Příbor",
  "name": "Shelby Baptist Medical Center",
  "type": "hospital",
  "address": "8 Sunfield Place",
  "department": 5
},{
  "_id": {
    "$oid": "61b07834fc13ae0e320001f2"
  },
  "GPS": {
    "latitude": 13.5616918,
    "longitude": -15.8304975
  },
  "city": "No Kunda",
  "name": "Russell Medical Center",
  "type": "hospital",
  "address": "763 Drewry Plaza",
  "department": 1
},{
  "_id": {
    "$oid": "61b07834fc13ae0e320001f3"
  },
  "GPS": {
    "latitude": -6.8907337,
    "longitude": 111.2785407
  },
  "city": "Gaplokan",
  "name": "Providence Valdez Medical Center",
  "type": "hospital",
  "address": "172 Ryan Crossing",
  "department": 7
},{
  "_id": {
    "$oid": "61b07834fc13ae0e320001f4"
  },
  "GPS": {
    "latitude": -22.790968,
    "longitude": -43.369805
  },
  "city": "São João de Meriti",
  "name": "MOUNT ELIZABETH NOVENA HOSPITAL PHARMACY",
  "type": "pharmacy",
  "address": "24 Raven Alley"
},{
  "_id": {
    "$oid": "61b07834fc13ae0e320001f5"
  },
  "GPS": {
    "latitude": 13.6954096,
    "longitude": 100.5127381
  },
  "city": "Bang Kho Laem",
  "name": "Mount Elizabeth Hospital",
  "type": "pharmacy",
  "address": "6515 Macpherson Drive"
},{
  "_id": {
    "$oid": "61b07834fc13ae0e320001f6"
  },
  "GPS": {
    "latitude": -10.37092,
    "longitude": -77.492203
  },
  "city": "Copa",
  "name": "Mount Elizabeth Hospital",
  "type": "pharmacy",
  "address": "26589 Quincy Hill"
},{
  "_id": {
    "$oid": "61b07834fc13ae0e320001f7"
  },
  "GPS": {
    "latitude": 35.904442,
    "longitude": 115.110483
  },
  "city": "Jindou",
  "name": "SINGHEALTH POLY-OUTRAM",
  "type": "pharmacy",
  "address": "2355 Logan Parkway"
},{
  "_id": {
    "$oid": "61b07834fc13ae0e320001f8"
  },
  "GPS": {
    "latitude": 50.0957911,
    "longitude": 16.984906
  },
  "city": "Jindřichov",
  "name": "Clinic B Pharmacy",
  "type": "pharmacy",
  "address": "57323 Summer Ridge Parkway"
},{
  "_id": {
    "$oid": "61b07834fc13ae0e320001f9"
  },
  "GPS": {
    "latitude": 39.6611469,
    "longitude": 20.1789757
  },
  "city": "Konispol",
  "name": "COVID CENTER 8",
  "type": "specialized center",
  "address": "304 Pawling Drive"
},{
  "_id": {
    "$oid": "61b07834fc13ae0e320001fa"
  },
  "GPS": {
    "latitude": 31.7751564,
    "longitude": 117.2102637
  },
  "city": "Dartang",
  "name": "Highlands Medical Center",
  "type": "hospital",
  "address": "02 Summer Ridge Center",
  "department": 4
},{
  "_id": {
    "$oid": "61b07834fc13ae0e320001fb"
  },
  "GPS": {
    "latitude": 53.180879,
    "longitude": 17.0835566
  },
  "city": "Wysoka",
  "name": "Tan Tock Seng Hospital (Pharmacy Level 2)",
  "type": "pharmacy",
  "address": "9196 Moland Park"
},{
  "_id": {
    "$oid": "61b07834fc13ae0e320001fc"
  },
  "GPS": {
    "latitude": 31.9339724,
    "longitude": 118.670339
  },
  "city": "Hongmiao",
  "name": "SINGHEALTH POLY-OUTRAM",
  "type": "pharmacy",
  "address": "07 Express Center"
},{
  "_id": {
    "$oid": "61b07834fc13ae0e320001fd"
  },
  "GPS": {
    "latitude": -7.3225,
    "longitude": 107.86
  },
  "city": "Cikuray",
  "name": "Russellville Hospital",
  "type": "hospital",
  "address": "7 Portage Trail",
  "department": 3
},{
  "_id": {
    "$oid": "61b07834fc13ae0e320001fe"
  },
  "GPS": {
    "latitude": 49.9466816,
    "longitude": 18.8244645
  },
  "city": "Radostowice",
  "name": "Baptist Medical Center East",
  "type": "hospital",
  "address": "59 Manley Junction",
  "department": 7
},{
  "_id": {
    "$oid": "61b07834fc13ae0e320001ff"
  },
  "GPS": {
    "latitude": 52.199771,
    "longitude": 21.14523
  },
  "city": "Wawer",
  "name": "COVID CENTER 28",
  "type": "specialized center",
  "address": "76982 Miller Way"
},{
  "_id": {
    "$oid": "61b07834fc13ae0e32000200"
  },
  "GPS": {
    "latitude": 14.6404686,
    "longitude": 120.9915504
  },
  "city": "Cabatuan",
  "name": "Maniilaq Health Center",
  "type": "hospital",
  "address": "815 Kensington Pass",
  "department": 4
},{
  "_id": {
    "$oid": "61b07834fc13ae0e32000201"
  },
  "GPS": {
    "latitude": 56.0764809,
    "longitude": 88.6780253
  },
  "city": "Tisul’",
  "name": "Marion Regional Medical Center",
  "type": "hospital",
  "address": "52 Beilfuss Circle",
  "department": 2
},{
  "_id": {
    "$oid": "61b07834fc13ae0e32000202"
  },
  "GPS": {
    "latitude": 39.9041999,
    "longitude": 116.4073963
  },
  "city": "Baijiang",
  "name": "COVID CENTER 5",
  "type": "specialized center",
  "address": "9980 Glendale Avenue"
},{
  "_id": {
    "$oid": "61b07834fc13ae0e32000203"
  },
  "GPS": {
    "latitude": 50.2837307,
    "longitude": 2.7425682
  },
  "city": "Arras",
  "name": "Jurong Community Hospital Pharmacy",
  "type": "pharmacy",
  "address": "34 Jenna Junction"
},{
  "_id": {
    "$oid": "61b07834fc13ae0e32000204"
  },
  "GPS": {
    "latitude": -15.8272432,
    "longitude": -50.265662
  },
  "city": "Goiás",
  "name": "Vaughan Regional Medical Center Parkway Campus",
  "type": "hospital",
  "address": "5318 Grover Avenue",
  "department": 9
},{
  "_id": {
    "$oid": "61b07834fc13ae0e32000205"
  },
  "GPS": {
    "latitude": 43.4945737,
    "longitude": 5.8978018
  },
  "city": "Paris 04",
  "name": "COVID CENTER 19",
  "type": "specialized center",
  "address": "688 Texas Terrace"
},{
  "_id": {
    "$oid": "61b07834fc13ae0e32000206"
  },
  "GPS": {
    "latitude": -10.9564306,
    "longitude": -76.933337
  },
  "city": "Paccho",
  "name": "St Vincents Blount",
  "type": "hospital",
  "address": "89 Steensland Street",
  "department": 9
},{
  "_id": {
    "$oid": "61b07834fc13ae0e32000207"
  },
  "GPS": {
    "latitude": 54.2331,
    "longitude": -125.7533
  },
  "city": "Burns Lake",
  "name": "KK Emergency Pharmacy",
  "type": "pharmacy",
  "address": "338 Randy Parkway"
},{
  "_id": {
    "$oid": "61b07834fc13ae0e32000208"
  },
  "GPS": {
    "latitude": 59.9251831,
    "longitude": 10.8203114
  },
  "city": "Oslo",
  "name": "Mizell Memorial Hospital",
  "type": "hospital",
  "address": "63 Daystar Place",
  "department": 7
},{
  "_id": {
    "$oid": "61b07834fc13ae0e32000209"
  },
  "GPS": {
    "latitude": 41.65041,
    "longitude": 59.9164
  },
  "city": "Tagta",
  "name": "COVID CENTER 5",
  "type": "specialized center",
  "address": "86389 Del Sol Plaza"
},{
  "_id": {
    "$oid": "61b07834fc13ae0e3200020a"
  },
  "GPS": {
    "latitude": 59.0541421,
    "longitude": 12.695366
  },
  "city": "Åmål",
  "name": "COVID CENTER 25",
  "type": "specialized center",
  "address": "1 Carpenter Center"
},{
  "_id": {
    "$oid": "61b07834fc13ae0e3200020b"
  },
  "GPS": {
    "latitude": 41.5728211,
    "longitude": 23.7282719
  },
  "city": "Gotse Delchev",
  "name": "Medical Center Barbour",
  "type": "hospital",
  "address": "3 Gina Place",
  "department": 8
},{
  "_id": {
    "$oid": "61b07834fc13ae0e3200020c"
  },
  "GPS": {
    "latitude": 31.95402,
    "longitude": 35.1624
  },
  "city": "Az Zaytūnīyah",
  "name": "COVID CENTER 16",
  "type": "specialized center",
  "address": "34588 Kinsman Point"
},{
  "_id": {
    "$oid": "61b07834fc13ae0e3200020d"
  },
  "GPS": {
    "latitude": 55.61667,
    "longitude": 23.18333
  },
  "city": "Tytuvėnėliai",
  "name": "Mount Alvernia Hospital (Main Pharmacy)",
  "type": "pharmacy",
  "address": "85 Mallard Place"
},{
  "_id": {
    "$oid": "61b07834fc13ae0e3200020e"
  },
  "GPS": {
    "latitude": 41.0874823,
    "longitude": -7.9582137
  },
  "city": "Mosteiro",
  "name": "Community Hospital Inc",
  "type": "hospital",
  "address": "2893 American Court",
  "department": 2
},{
  "_id": {
    "$oid": "61b07834fc13ae0e3200020f"
  },
  "GPS": {
    "latitude": 34.329605,
    "longitude": 108.708991
  },
  "city": "Xianyan",
  "name": "St Joseph's Hospital",
  "type": "hospital",
  "address": "0397 Fallview Circle",
  "department": 5
},{
  "_id": {
    "$oid": "61b07834fc13ae0e32000210"
  },
  "GPS": {
    "latitude": 10.0192191,
    "longitude": -69.2519936
  },
  "city": "Cabudare",
  "name": "COVID CENTER 57",
  "type": "specialized center",
  "address": "0 Graedel Junction"
},{
  "_id": {
    "$oid": "61b07834fc13ae0e32000211"
  },
  "GPS": {
    "latitude": 55.6717773,
    "longitude": 12.5605145
  },
  "city": "København",
  "name": "Khoo Teck Puat Hospital Pharmacy",
  "type": "pharmacy",
  "address": "2299 Lawn Hill"
},{
  "_id": {
    "$oid": "61b07834fc13ae0e32000212"
  },
  "GPS": {
    "latitude": 41.000673,
    "longitude": 123.2861901
  },
  "city": "Xiadahe",
  "name": "Maricopa Medical Center",
  "type": "hospital",
  "address": "88 Mifflin Lane",
  "department": 10
},{
  "_id": {
    "$oid": "61b07834fc13ae0e32000213"
  },
  "GPS": {
    "latitude": 40.4529251,
    "longitude": 49.7333235
  },
  "city": "Khirdalan",
  "name": "COVID CENTER 58",
  "type": "specialized center",
  "address": "6429 Roxbury Court"
},{
  "_id": {
    "$oid": "61b07834fc13ae0e32000214"
  },
  "GPS": {
    "latitude": 42.0256471,
    "longitude": 24.1082622
  },
  "city": "Rakitovo",
  "name": "Alexandra Hospital Retail Pharmacy",
  "type": "pharmacy",
  "address": "15 Park Meadow Drive"
},{
  "_id": {
    "$oid": "61b07834fc13ae0e32000215"
  },
  "GPS": {
    "latitude": -12.5444681,
    "longitude": -41.8402054
  },
  "city": "Seabra",
  "name": "Floyd Cherokee Medical Center",
  "type": "hospital",
  "address": "4263 Welch Park",
  "department": 1
},{
  "_id": {
    "$oid": "61b07834fc13ae0e32000216"
  },
  "GPS": {
    "latitude": 48.73808,
    "longitude": -69.08478
  },
  "city": "Forestville",
  "name": "Canyon Vista Medical Center",
  "type": "hospital",
  "address": "908 Colorado Place",
  "department": 4
},{
  "_id": {
    "$oid": "61b07834fc13ae0e32000217"
  },
  "GPS": {
    "latitude": 41.1645867,
    "longitude": -7.7937927
  },
  "city": "Peso da Régua",
  "name": "COVID CENTER 30",
  "type": "specialized center",
  "address": "06 Oxford Drive"
},{
  "_id": {
    "$oid": "61b07834fc13ae0e32000218"
  },
  "GPS": {
    "latitude": 58.3958615,
    "longitude": 13.8536226
  },
  "city": "Mariestad",
  "name": "Dekalb Regional Medical Center",
  "type": "hospital",
  "address": "1155 Toban Trail",
  "department": 1
},{
  "_id": {
    "$oid": "61b07834fc13ae0e32000219"
  },
  "GPS": {
    "latitude": 8.4677773,
    "longitude": -82.3912892
  },
  "city": "El Quiteño",
  "name": "University Of S A Children's And Women's Hos",
  "type": "hospital",
  "address": "36640 School Alley",
  "department": 7
},{
  "_id": {
    "$oid": "61b07834fc13ae0e3200021a"
  },
  "GPS": {
    "latitude": 49.0285391,
    "longitude": 2.3236877
  },
  "city": "Domont",
  "name": "St Joseph's Hospital",
  "type": "hospital",
  "address": "4 Merry Road",
  "department": 3
},{
  "_id": {
    "$oid": "61b07834fc13ae0e3200021b"
  },
  "GPS": {
    "latitude": 37.943121,
    "longitude": 115.217658
  },
  "city": "Xinji",
  "name": "Hill Hospital Of Sumter County",
  "type": "hospital",
  "address": "0006 Meadow Ridge Way",
  "department": 1
},{
  "_id": {
    "$oid": "61b07834fc13ae0e3200021c"
  },
  "GPS": {
    "latitude": 52.1124967,
    "longitude": 26.0634602
  },
  "city": "Pinsk",
  "name": "COVID CENTER 56",
  "type": "specialized center",
  "address": "18312 Texas Point"
},{
  "_id": {
    "$oid": "61b07834fc13ae0e3200021d"
  },
  "GPS": {
    "latitude": 26.1218315,
    "longitude": 32.4715312
  },
  "city": "Dishnā",
  "name": "Northeast Alabama Regional Medical Center",
  "type": "hospital",
  "address": "9 Badeau Road",
  "department": 7
},{
  "_id": {
    "$oid": "61b07834fc13ae0e3200021e"
  },
  "GPS": {
    "latitude": 41.2378592,
    "longitude": -8.5349198
  },
  "city": "Alfena",
  "name": "D C H Regional Medical Center",
  "type": "hospital",
  "address": "24 Mayfield Park",
  "department": 9
},{
  "_id": {
    "$oid": "61b07834fc13ae0e3200021f"
  },
  "GPS": {
    "latitude": -9.6593944,
    "longitude": 120.2761574
  },
  "city": "Kampungraja",
  "name": "ST ANDREW'S COMMUNITY HOSPITAL PHARMACY",
  "type": "pharmacy",
  "address": "133 Toban Alley"
},{
  "_id": {
    "$oid": "61b07834fc13ae0e32000220"
  },
  "GPS": {
    "latitude": -7.5450262,
    "longitude": 111.6556388
  },
  "city": "Krajan",
  "name": "Amber Compounding Pharmacy Pte Ltd",
  "type": "pharmacy",
  "address": "98295 Southridge Trail"
},{
  "_id": {
    "$oid": "61b07834fc13ae0e32000221"
  },
  "GPS": {
    "latitude": 42.785791,
    "longitude": 124.111099
  },
  "city": "Changtu",
  "name": "Cordova Community Medical Center",
  "type": "hospital",
  "address": "0288 Elmside Road",
  "department": 6
},{
  "_id": {
    "$oid": "61b07834fc13ae0e32000222"
  },
  "GPS": {
    "latitude": -22.6053393,
    "longitude": -46.914966
  },
  "city": "Santo Antônio de Posse",
  "name": "COVID CENTER 1",
  "type": "specialized center",
  "address": "17751 Green Pass"
},{
  "_id": {
    "$oid": "61b07834fc13ae0e32000223"
  },
  "GPS": {
    "latitude": -7.6426348,
    "longitude": 112.7032945
  },
  "city": "Pandean",
  "name": "COVID CENTER 39",
  "type": "specialized center",
  "address": "31015 Sutteridge Road"
},{
  "_id": {
    "$oid": "61b07834fc13ae0e32000224"
  },
  "GPS": {
    "latitude": 41.11023,
    "longitude": 20.0866554
  },
  "city": "Elbasan",
  "name": "COVID CENTER 8",
  "type": "specialized center",
  "address": "61 Express Parkway"
},{
  "_id": {
    "$oid": "61b07834fc13ae0e32000225"
  },
  "GPS": {
    "latitude": 38.2792524,
    "longitude": 111.6631302
  },
  "city": "Xiangyanglu",
  "name": "Northeast Alabama Regional Medical Center",
  "type": "hospital",
  "address": "02395 Longview Plaza",
  "department": 5
},{
  "_id": {
    "$oid": "61b07834fc13ae0e32000226"
  },
  "GPS": {
    "latitude": 30.019858,
    "longitude": 122.106773
  },
  "city": "Dingzhai",
  "name": "Verde Valley Medical Center",
  "type": "hospital",
  "address": "07199 Autumn Leaf Junction",
  "department": 5
},{
  "_id": {
    "$oid": "61b07834fc13ae0e32000227"
  },
  "GPS": {
    "latitude": 44.521785,
    "longitude": 125.72862
  },
  "city": "Dehui",
  "name": "Pharmacy Services Centre NHG (Blk 9)",
  "type": "pharmacy",
  "address": "92630 Lyons Trail"
},{
  "_id": {
    "$oid": "61b07834fc13ae0e32000228"
  },
  "GPS": {
    "latitude": 15.0410586,
    "longitude": 120.0745042
  },
  "city": "Bangad",
  "name": "South Peninsula Hospital",
  "type": "hospital",
  "address": "03339 Stuart Center",
  "department": 8
},{
  "_id": {
    "$oid": "61b07834fc13ae0e32000229"
  },
  "GPS": {
    "latitude": 36.0932201,
    "longitude": 139.4440586
  },
  "city": "Kōnosu",
  "name": "PARKWAY EAST HOSPITAL PHARMACY",
  "type": "pharmacy",
  "address": "61562 Swallow Way"
},{
  "_id": {
    "$oid": "61b07834fc13ae0e3200022a"
  },
  "GPS": {
    "latitude": 41.4495777,
    "longitude": -8.3894249
  },
  "city": "Vermil",
  "name": "Grandview Medical Center",
  "type": "hospital",
  "address": "024 Manitowish Avenue",
  "department": 3
},{
  "_id": {
    "$oid": "61b07834fc13ae0e3200022b"
  },
  "GPS": {
    "latitude": 41.3015266,
    "longitude": -8.5820391
  },
  "city": "Vilares",
  "name": "COVID CENTER 14",
  "type": "specialized center",
  "address": "15 Fremont Alley"
},{
  "_id": {
    "$oid": "61b07834fc13ae0e3200022c"
  },
  "GPS": {
    "latitude": 33.001096,
    "longitude": 106.91786
  },
  "city": "Xieshui",
  "name": "NHG Pharmacy (CCK Polyclinic)",
  "type": "pharmacy",
  "address": "881 Comanche Pass"
},{
  "_id": {
    "$oid": "61b07834fc13ae0e3200022d"
  },
  "GPS": {
    "latitude": 1.5245894,
    "longitude": 110.3127541
  },
  "city": "Timurlorong",
  "name": "Jackson Medical Center",
  "type": "hospital",
  "address": "6477 Fairfield Park",
  "department": 1
},{
  "_id": {
    "$oid": "61b07834fc13ae0e3200022e"
  },
  "GPS": {
    "latitude": 47.6593594,
    "longitude": -52.7383086
  },
  "city": "Torbay",
  "name": "North Baldwin Infirmary",
  "type": "hospital",
  "address": "8 Little Fleur Drive",
  "department": 7
},{
  "_id": {
    "$oid": "61b07834fc13ae0e3200022f"
  },
  "GPS": {
    "latitude": 38.8466225,
    "longitude": 139.8744722
  },
  "city": "Fukagawa",
  "name": "COVID CENTER 50",
  "type": "specialized center",
  "address": "930 Twin Pines Center"
},{
  "_id": {
    "$oid": "61b07834fc13ae0e32000230"
  },
  "GPS": {
    "latitude": 58.3958615,
    "longitude": 13.8536226
  },
  "city": "Mariestad",
  "name": "Walker Baptist Medical Center",
  "type": "hospital",
  "address": "39 Loftsgordon Alley",
  "department": 4
},{
  "_id": {
    "$oid": "61b07834fc13ae0e32000231"
  },
  "GPS": {
    "latitude": 14.7292113,
    "longitude": -88.0338631
  },
  "city": "San José de Comayagua",
  "name": "National Centre for Infectious Disease (Outpatient Pharmacy)",
  "type": "pharmacy",
  "address": "8830 Raven Drive"
},{
  "_id": {
    "$oid": "61b07834fc13ae0e32000232"
  },
  "GPS": {
    "latitude": 9.1375974,
    "longitude": -75.2128996
  },
  "city": "Corozal",
  "name": "COVID CENTER 55",
  "type": "specialized center",
  "address": "65771 Kensington Lane"
},{
  "_id": {
    "$oid": "61b07834fc13ae0e32000233"
  },
  "GPS": {
    "latitude": 39.1955731,
    "longitude": -9.263539
  },
  "city": "Cabeça Gorda",
  "name": "Providence Kodiak Island Medical Ctr",
  "type": "hospital",
  "address": "837 Haas Park",
  "department": 6
},{
  "_id": {
    "$oid": "61b07834fc13ae0e32000234"
  },
  "GPS": {
    "latitude": 43.30706,
    "longitude": 124.33539
  },
  "city": "Lishu",
  "address": "75817 Commercial Road"
},{
  "_id": {
    "$oid": "61b07834fc13ae0e32000235"
  },
  "GPS": {
    "latitude": -19.6238346,
    "longitude": -43.2182878
  },
  "city": "Itabira",
  "name": "COVID CENTER 20",
  "type": "specialized center",
  "address": "3 Lien Trail"
},{
  "_id": {
    "$oid": "61b07834fc13ae0e32000236"
  },
  "GPS": {
    "latitude": 14.136844,
    "longitude": -90.008975
  },
  "city": "Jalpatagua",
  "name": "University Of Alabama Hospital",
  "type": "hospital",
  "address": "886 Old Shore Road",
  "department": 7
},{
  "_id": {
    "$oid": "61b07834fc13ae0e32000237"
  },
  "GPS": {
    "latitude": -7.9360667,
    "longitude": 112.1787896
  },
  "city": "Ngancar",
  "name": "Maricopa Medical Center",
  "type": "hospital",
  "address": "02 Clemons Place",
  "department": 3
},{
  "_id": {
    "$oid": "61b07834fc13ae0e32000238"
  },
  "GPS": {
    "latitude": 7.0024321,
    "longitude": -9.4728244
  },
  "city": "Gbarnga",
  "name": "COVID CENTER 4",
  "type": "specialized center",
  "address": "5508 Buhler Point"
},{
  "_id": {
    "$oid": "61b07834fc13ae0e32000239"
  },
  "GPS": {
    "latitude": -14.8518869,
    "longitude": -66.7486446
  },
  "city": "San Borja",
  "name": "Evergreen Medical Center",
  "type": "hospital",
  "address": "402 Montana Drive",
  "department": 4
},{
  "_id": {
    "$oid": "61b07834fc13ae0e3200023a"
  },
  "GPS": {
    "latitude": 17.1547981,
    "longitude": 42.6268969
  },
  "city": "Şabyā",
  "name": "MT ALVERNIA HOSPITAL RETAIL PHARMACY",
  "type": "pharmacy",
  "address": "37224 Hermina Alley"
},{
  "_id": {
    "$oid": "61b07834fc13ae0e3200023b"
  },
  "GPS": {
    "latitude": -9.7089,
    "longitude": 124.2564
  },
  "city": "Oemollo",
  "name": "Cordova Community Medical Center",
  "type": "hospital",
  "address": "10 Pepper Wood Parkway",
  "department": 6
},{
  "_id": {
    "$oid": "61b07834fc13ae0e3200023c"
  },
  "GPS": {
    "latitude": 38.0970415,
    "longitude": 21.4183073
  },
  "city": "Lápas",
  "name": "Yukon Kuskokwim Delta Reg Hospital",
  "type": "hospital",
  "address": "1347 Oak Way",
  "department": 7
},{
  "_id": {
    "$oid": "61b07834fc13ae0e3200023d"
  },
  "GPS": {
    "latitude": 47.0184615,
    "longitude": -68.1430761
  },
  "city": "Stockholm",
  "name": "COVID CENTER 3",
  "type": "specialized center",
  "address": "26665 Sundown Plaza"
},{
  "_id": {
    "$oid": "61b07834fc13ae0e3200023e"
  },
  "GPS": {
    "latitude": 49.8881618,
    "longitude": 15.5262702
  },
  "city": "Ronov nad Doubravou",
  "name": "COVID CENTER 39",
  "type": "specialized center",
  "address": "55792 Bartillon Place"
},{
  "_id": {
    "$oid": "61b07834fc13ae0e3200023f"
  },
  "GPS": {
    "latitude": -4.5329418,
    "longitude": 105.2077798
  },
  "city": "Menggala",
  "name": "COVID CENTER 56",
  "type": "specialized center",
  "address": "64265 Talisman Road"
},{
  "_id": {
    "$oid": "61b07834fc13ae0e32000240"
  },
  "GPS": {
    "latitude": 30.45,
    "longitude": -91.15
  },
  "city": "Baton Rouge",
  "name": "COVID CENTER 40",
  "type": "specialized center",
  "address": "282 Sugar Road"
},{
  "_id": {
    "$oid": "61b07834fc13ae0e32000241"
  },
  "GPS": {
    "latitude": 52.9002738,
    "longitude": 20.7462079
  },
  "city": "Opinogóra Górna",
  "name": "WATSONS PERSONAL CARE STORES (TIONG BAHRU PLAZA)",
  "type": "pharmacy",
  "address": "71782 Jackson Plaza"
},{
  "_id": {
    "$oid": "61b07834fc13ae0e32000242"
  },
  "GPS": {
    "latitude": -8.170292,
    "longitude": 124.854068
  },
  "city": "Taramana",
  "name": "Petersburg Medical Center",
  "type": "hospital",
  "address": "52082 Eagan Avenue",
  "department": 1
},{
  "_id": {
    "$oid": "61b07834fc13ae0e32000243"
  },
  "GPS": {
    "latitude": 38.8884333,
    "longitude": 45.0304001
  },
  "city": "Qarah Ẕīā’ od Dīn",
  "name": "Russell Medical Center",
  "type": "hospital",
  "address": "2787 Huxley Circle",
  "department": 9
},{
  "_id": {
    "$oid": "61b07834fc13ae0e32000244"
  },
  "GPS": {
    "latitude": -6.9775856,
    "longitude": 110.5424021
  },
  "city": "Bulusari",
  "name": "COVID CENTER 34",
  "type": "specialized center",
  "address": "261 Vermont Avenue"
},{
  "_id": {
    "$oid": "61b07834fc13ae0e32000245"
  },
  "GPS": {
    "latitude": 27.3526033,
    "longitude": 62.3447815
  },
  "city": "Sarāvān",
  "name": "Tan Tock Seng Hospital (Pharmacy Level 2)",
  "type": "pharmacy",
  "address": "59 8th Trail"
},{
  "_id": {
    "$oid": "61b07834fc13ae0e32000246"
  },
  "GPS": {
    "latitude": 11.379367,
    "longitude": 7.5599321
  },
  "city": "Danja",
  "name": "Eliza Coffee Memorial Hospital",
  "type": "hospital",
  "address": "9832 Melrose Terrace",
  "department": 9
},{
  "_id": {
    "$oid": "61b07834fc13ae0e32000247"
  },
  "GPS": {
    "latitude": -8.817396,
    "longitude": 120.806198
  },
  "city": "Keli",
  "name": "Petersburg Medical Center",
  "type": "hospital",
  "address": "89368 Carioca Hill",
  "department": 4
},{
  "_id": {
    "$oid": "61b07834fc13ae0e32000248"
  },
  "GPS": {
    "latitude": 13.533238,
    "longitude": -15.412011
  },
  "city": "Sara Kunda",
  "name": "Alaska Native Medical Center",
  "type": "hospital",
  "address": "84594 Fallview Junction",
  "department": 2
},{
  "_id": {
    "$oid": "61b07834fc13ae0e32000249"
  },
  "GPS": {
    "latitude": 47.1844184,
    "longitude": 35.1072745
  },
  "city": "Tymoshivka",
  "name": "COVID CENTER 54",
  "type": "specialized center",
  "address": "5 Kropf Park"
},{
  "_id": {
    "$oid": "61b07834fc13ae0e3200024a"
  },
  "GPS": {
    "latitude": 7.2149367,
    "longitude": 124.2404727
  },
  "city": "Kiupo",
  "name": "COVID CENTER 45",
  "type": "specialized center",
  "address": "6915 Mayer Pass"
},{
  "_id": {
    "$oid": "61b07834fc13ae0e3200024b"
  },
  "GPS": {
    "latitude": -14.2576342,
    "longitude": -69.1692951
  },
  "city": "Yanahuaya",
  "name": "Community Hospital Inc",
  "type": "hospital",
  "address": "43271 Ilene Plaza",
  "department": 2
},{
  "_id": {
    "$oid": "61b07834fc13ae0e3200024c"
  },
  "GPS": {
    "latitude": 57.4249887,
    "longitude": 60.0526098
  },
  "city": "Kirovgrad",
  "name": "WATSON'S PERSONAL CARE STORES PTE LTD (WATERWAY POINT)",
  "type": "pharmacy",
  "address": "4 Oneill Pass"
},{
  "_id": {
    "$oid": "61b07834fc13ae0e3200024d"
  },
  "GPS": {
    "latitude": 55.086808,
    "longitude": 60.143301
  },
  "city": "Sinegor'ye",
  "name": "COVID CENTER 47",
  "type": "specialized center",
  "address": "52630 Haas Lane"
},{
  "_id": {
    "$oid": "61b07834fc13ae0e3200024e"
  },
  "GPS": {
    "latitude": -6.4594857,
    "longitude": 105.9141793
  },
  "city": "Kadubera",
  "name": "COVID CENTER 52",
  "type": "specialized center",
  "address": "0080 Ohio Lane"
},{
  "_id": {
    "$oid": "61b07834fc13ae0e3200024f"
  },
  "GPS": {
    "latitude": 52.2871973,
    "longitude": 21.2810466
  },
  "city": "Zielonka",
  "name": "D C H Regional Medical Center",
  "type": "hospital",
  "address": "1 Oxford Point",
  "department": 7
},{
  "_id": {
    "$oid": "61b07834fc13ae0e32000250"
  },
  "GPS": {
    "latitude": 14.7793575,
    "longitude": 121.0489884
  },
  "city": "Bagombong",
  "name": "MOHAMED MUSTAFA & SAMSUDDIN CO PTE LTD (MUSTAFA CENTRE)",
  "type": "pharmacy",
  "address": "3036 Maple Avenue"
},{
  "_id": {
    "$oid": "61b07834fc13ae0e32000251"
  },
  "GPS": {
    "latitude": -29.962127,
    "longitude": -51.7250108
  },
  "city": "São Jerônimo",
  "name": "SMITH PHARMACY PTE LTD",
  "type": "pharmacy",
  "address": "9 6th Plaza"
},{
  "_id": {
    "$oid": "61b07834fc13ae0e32000252"
  },
  "GPS": {
    "latitude": 50.5904776,
    "longitude": 30.4831983
  },
  "city": "Vyshhorod",
  "name": "SGH BOWYER BLOCK PHARMACY",
  "type": "pharmacy",
  "address": "7 Tennessee Avenue"
},{
  "_id": {
    "$oid": "61b07834fc13ae0e32000253"
  },
  "GPS": {
    "latitude": 34.6322209,
    "longitude": 137.1581462
  },
  "city": "Muramatsu",
  "name": "MOUNT ELIZABETH NOVENA HOSPITAL PHARMACY",
  "type": "pharmacy",
  "address": "8 Pepper Wood Way"
},{
  "_id": {
    "$oid": "61b07834fc13ae0e32000254"
  },
  "GPS": {
    "latitude": 23.350767,
    "longitude": 112.284638
  },
  "city": "Hetai",
  "name": "Choctaw General Hospital",
  "type": "hospital",
  "address": "7 Lunder Pass",
  "department": 8
},{
  "_id": {
    "$oid": "61b07834fc13ae0e32000255"
  },
  "GPS": {
    "latitude": 55.5446591,
    "longitude": 13.9636888
  },
  "city": "Simrishamn",
  "name": "Jurong Medical Centre Pharmacy",
  "type": "pharmacy",
  "address": "75 Menomonie Plaza"
},{
  "_id": {
    "$oid": "61b07834fc13ae0e32000256"
  },
  "GPS": {
    "latitude": 13.928808,
    "longitude": 121.421617
  },
  "city": "Bukal Sur",
  "name": "Thomson Medical Centre",
  "type": "pharmacy",
  "address": "2 Hintze Place"
},{
  "_id": {
    "$oid": "61b07834fc13ae0e32000257"
  },
  "GPS": {
    "latitude": -26.4822209,
    "longitude": -49.073477
  },
  "city": "Jaraguá do Sul",
  "name": "WELCIA-BHG LOT ONE",
  "type": "pharmacy",
  "address": "63615 Anzinger Alley"
},{
  "_id": {
    "$oid": "61b07834fc13ae0e32000258"
  },
  "GPS": {
    "latitude": 49.4104,
    "longitude": 1.032621
  },
  "city": "Le Grand-Quevilly",
  "name": "Pickens County Medical Center",
  "type": "hospital",
  "address": "26431 Butterfield Place",
  "department": 6
},{
  "_id": {
    "$oid": "61b07834fc13ae0e32000259"
  },
  "GPS": {
    "latitude": 29.4315861,
    "longitude": 106.912251
  },
  "city": "Changkeng",
  "name": "COVID CENTER 5",
  "type": "specialized center",
  "address": "54 Grayhawk Alley"
},{
  "_id": {
    "$oid": "61b07834fc13ae0e3200025a"
  },
  "GPS": {
    "latitude": 22.7315115,
    "longitude": -98.9735333
  },
  "city": "Independencia",
  "name": "Crestwood Medical Center",
  "type": "hospital",
  "address": "1 Maple Trail",
  "department": 9
},{
  "_id": {
    "$oid": "61b07834fc13ae0e3200025b"
  },
  "GPS": {
    "latitude": 53.2737147,
    "longitude": -9.0288689
  },
  "city": "Gweedore",
  "name": "North Baldwin Infirmary",
  "type": "hospital",
  "address": "5 Arrowood Place",
  "department": 9
},{
  "_id": {
    "$oid": "61b07834fc13ae0e3200025c"
  },
  "GPS": {
    "latitude": 26.1656051,
    "longitude": 50.5523828
  },
  "city": "Madīnat ‘Īsá",
  "name": "L V Stabler Memorial Hospital",
  "type": "hospital",
  "address": "637 Dunning Junction",
  "department": 4
},{
  "_id": {
    "$oid": "61b07834fc13ae0e3200025d"
  },
  "GPS": {
    "latitude": -8.7615563,
    "longitude": 116.3574136
  },
  "city": "Mujur",
  "name": "Tucson Medical Center",
  "type": "hospital",
  "address": "9859 School Avenue",
  "department": 3
},{
  "_id": {
    "$oid": "61b07834fc13ae0e3200025e"
  },
  "GPS": {
    "latitude": 52.2063851,
    "longitude": -0.9009942
  },
  "city": "Wootton",
  "name": "Mobile Infirmary Medical Center",
  "type": "hospital",
  "address": "90 Monument Center",
  "department": 8
},{
  "_id": {
    "$oid": "61b07834fc13ae0e3200025f"
  },
  "GPS": {
    "latitude": 54.141067,
    "longitude": 25.0156941
  },
  "city": "Eišiškės",
  "name": "COVID CENTER 28",
  "type": "specialized center",
  "address": "17428 Union Junction"
},{
  "_id": {
    "$oid": "61b07834fc13ae0e32000260"
  },
  "GPS": {
    "latitude": 14.0790439,
    "longitude": 5.956825
  },
  "city": "Madaoua",
  "name": "Scottsdale Osborn Medical Center",
  "type": "hospital",
  "address": "82 Jenna Pass",
  "department": 6
},{
  "_id": {
    "$oid": "61b07834fc13ae0e32000261"
  },
  "GPS": {
    "latitude": 35.719396,
    "longitude": 117.953621
  },
  "city": "Mengyin",
  "name": "Prattville Baptist Hospital",
  "type": "hospital",
  "address": "3 Vahlen Point",
  "department": 6
},{
  "_id": {
    "$oid": "61b07834fc13ae0e32000262"
  },
  "GPS": {
    "latitude": 13.6361135,
    "longitude": 123.1924955
  },
  "city": "Barayong",
  "name": "KK Emergency Pharmacy",
  "type": "pharmacy",
  "address": "29 Maple Wood Trail"
},{
  "_id": {
    "$oid": "61b07834fc13ae0e32000263"
  },
  "GPS": {
    "latitude": 42.8408389,
    "longitude": 20.1670628
  },
  "city": "Rožaje",
  "name": "SGH Retail Pharmacy (Blk 4)",
  "type": "pharmacy",
  "address": "5 Becker Point"
},{
  "_id": {
    "$oid": "61b07834fc13ae0e32000264"
  },
  "GPS": {
    "latitude": -2.886385,
    "longitude": -78.7759559
  },
  "city": "Gualaceo",
  "name": "Crestwood Medical Center",
  "type": "hospital",
  "address": "98 Pearson Crossing",
  "department": 7
},{
  "_id": {
    "$oid": "61b07834fc13ae0e32000265"
  },
  "GPS": {
    "latitude": 53.10672,
    "longitude": -0.687802
  },
  "city": "Stapleford",
  "name": "Alchemy Pharmacy",
  "type": "pharmacy",
  "address": "2898 Hermina Center"
},{
  "_id": {
    "$oid": "61b07834fc13ae0e32000266"
  },
  "GPS": {
    "latitude": 39.562646,
    "longitude": 113.369956
  },
  "city": "Dalinhe",
  "name": "Community Hospital Inc",
  "type": "hospital",
  "address": "83666 Fisk Place",
  "department": 3
},{
  "_id": {
    "$oid": "61b07834fc13ae0e32000267"
  },
  "GPS": {
    "latitude": 35.8413934,
    "longitude": 14.5466374
  },
  "city": "Marsaxlokk",
  "name": "East Alabama Medical Center",
  "type": "hospital",
  "address": "0506 Jana Way",
  "department": 6
},{
  "_id": {
    "$oid": "61b07834fc13ae0e32000268"
  },
  "GPS": {
    "latitude": 33.45,
    "longitude": -111.97
  },
  "city": "Phoenix",
  "name": "Grandview Medical Center",
  "type": "hospital",
  "address": "1 Lake View Park",
  "department": 7
},{
  "_id": {
    "$oid": "61b07834fc13ae0e32000269"
  },
  "GPS": {
    "latitude": 31.463475,
    "longitude": 120.649341
  },
  "city": "Weitang",
  "name": "Eliza Coffee Memorial Hospital",
  "type": "hospital",
  "address": "05376 Randy Park",
  "department": 5
},{
  "_id": {
    "$oid": "61b07834fc13ae0e3200026a"
  },
  "GPS": {
    "latitude": 27.991617,
    "longitude": 114.387256
  },
  "city": "Changleng",
  "name": "Highlands Medical Center",
  "type": "hospital",
  "address": "5 Sachtjen Street",
  "department": 8
},{
  "_id": {
    "$oid": "61b07834fc13ae0e3200026b"
  },
  "GPS": {
    "latitude": 5.7799851,
    "longitude": 101.0372376
  },
  "city": "Betong",
  "name": "St Vincent's St Clair",
  "type": "hospital",
  "address": "532 Arrowood Street",
  "department": 4
},{
  "_id": {
    "$oid": "61b07834fc13ae0e3200026c"
  },
  "GPS": {
    "latitude": 18.6500708,
    "longitude": -74.3066879
  },
  "city": "Abricots",
  "name": "North Baldwin Infirmary",
  "type": "hospital",
  "address": "10599 Larry Lane",
  "department": 6
},{
  "_id": {
    "$oid": "61b07834fc13ae0e3200026d"
  },
  "GPS": {
    "latitude": 42.8494142,
    "longitude": 27.7900409
  },
  "city": "Byala",
  "name": "Providence Alaska Medical Center",
  "type": "hospital",
  "address": "8286 Hooker Street",
  "department": 4
},{
  "_id": {
    "$oid": "61b07834fc13ae0e3200026e"
  },
  "GPS": {
    "latitude": 49.73554,
    "longitude": 21.26331
  },
  "city": "Biecz",
  "name": "COVID CENTER 10",
  "type": "specialized center",
  "address": "14791 Carberry Pass"
},{
  "_id": {
    "$oid": "61b07834fc13ae0e3200026f"
  },
  "GPS": {
    "latitude": 50.859278,
    "longitude": 14.4868632
  },
  "city": "Chřibská",
  "name": "Alaska Regional Hospital",
  "type": "hospital",
  "address": "78198 Welch Trail",
  "department": 2
},{
  "_id": {
    "$oid": "61b07834fc13ae0e32000270"
  },
  "GPS": {
    "latitude": 48.1547935,
    "longitude": 25.7100722
  },
  "city": "Storozhynets’",
  "name": "MEDI-LINK PHARMACY",
  "type": "pharmacy",
  "address": "3 Macpherson Lane"
},{
  "_id": {
    "$oid": "61b07834fc13ae0e32000271"
  },
  "GPS": {
    "latitude": 60.0203894,
    "longitude": 41.0711197
  },
  "city": "Syamzha",
  "name": "COVID CENTER 54",
  "type": "specialized center",
  "address": "22 Charing Cross Crossing"
},{
  "_id": {
    "$oid": "61b07834fc13ae0e32000272"
  },
  "GPS": {
    "latitude": 25.770509,
    "longitude": 113.014717
  },
  "city": "Chenzhou",
  "name": "Thomas Hospital",
  "type": "hospital",
  "address": "03480 New Castle Alley",
  "department": 1
},{
  "_id": {
    "$oid": "61b07834fc13ae0e32000273"
  },
  "GPS": {
    "latitude": 13.6532561,
    "longitude": 100.5633676
  },
  "city": "Phra Pradaeng",
  "name": "Marshall Medical Center South",
  "type": "hospital",
  "address": "5 Del Sol Pass",
  "department": 10
},{
  "_id": {
    "$oid": "61b07834fc13ae0e32000274"
  },
  "GPS": {
    "latitude": 29.18902,
    "longitude": 103.236634
  },
  "city": "Qiping",
  "name": "COVID CENTER 29",
  "type": "specialized center",
  "address": "429 Union Street"
},{
  "_id": {
    "$oid": "61b07834fc13ae0e32000275"
  },
  "GPS": {
    "latitude": -8.5575745,
    "longitude": 116.5377213
  },
  "city": "Kembangkerang Satu",
  "name": "GRACE HEALTHCARE",
  "type": "pharmacy",
  "address": "49 Jay Place"
},{
  "_id": {
    "$oid": "61b07834fc13ae0e32000276"
  },
  "GPS": {
    "latitude": 33.3594755,
    "longitude": 35.5889282
  },
  "city": "Marjayoûn",
  "name": "Ketchikan Medical Center",
  "type": "hospital",
  "address": "75 Kropf Circle",
  "department": 4
},{
  "_id": {
    "$oid": "61b07834fc13ae0e32000277"
  },
  "GPS": {
    "latitude": 32.7010866,
    "longitude": -17.1340519
  },
  "city": "Madalena do Mar",
  "name": "Coosa Valley Medical Center",
  "type": "hospital",
  "address": "8 Spenser Street",
  "department": 7
},{
  "_id": {
    "$oid": "61b07834fc13ae0e32000278"
  },
  "GPS": {
    "latitude": -6.1944094,
    "longitude": 106.582844
  },
  "city": "Dahu Satu",
  "name": "COVID CENTER 20",
  "type": "specialized center",
  "address": "58384 Stoughton Avenue"
},{
  "_id": {
    "$oid": "61b07834fc13ae0e32000279"
  },
  "GPS": {
    "latitude": -8.2357,
    "longitude": 124.9124
  },
  "city": "Lakateng",
  "name": "SMITH PHARMACY PTE LTD",
  "type": "pharmacy",
  "address": "1 Arizona Junction"
},{
  "_id": {
    "$oid": "61b07834fc13ae0e3200027a"
  },
  "GPS": {
    "latitude": 14.697103,
    "longitude": 122.365336
  },
  "city": "Casuguran",
  "name": "NATIONAL UNIVERSITY HOSPITAL(S) PTE LTD (MEDICAL CENTRE PHARMACY)",
  "type": "pharmacy",
  "address": "007 Iowa Parkway"
},{
  "_id": {
    "$oid": "61b07834fc13ae0e3200027b"
  },
  "GPS": {
    "latitude": 8.5273038,
    "longitude": -82.7994194
  },
  "city": "Aserrío de Gariché",
  "name": "MUSTAFA PHARMACY",
  "type": "pharmacy",
  "address": "81336 Melby Drive"
},{
  "_id": {
    "$oid": "61b07834fc13ae0e3200027c"
  },
  "GPS": {
    "latitude": 19.0779991,
    "longitude": -71.8423092
  },
  "city": "Thomassique",
  "name": "St Vincent's St Clair",
  "type": "hospital",
  "address": "0 Carioca Crossing",
  "department": 9
},{
  "_id": {
    "$oid": "61b07834fc13ae0e3200027d"
  },
  "GPS": {
    "latitude": 45.9380817,
    "longitude": 16.7806658
  },
  "city": "Predavac",
  "name": "Community Hospital Inc",
  "type": "hospital",
  "address": "623 Lighthouse Bay Road",
  "department": 4
},{
  "_id": {
    "$oid": "61b07834fc13ae0e3200027e"
  },
  "GPS": {
    "latitude": 53.9240029,
    "longitude": 53.873969
  },
  "city": "Priyutovo",
  "name": "Manapharma Pharmacy",
  "type": "pharmacy",
  "address": "48 Summer Ridge Place"
},{
  "_id": {
    "$oid": "61b07834fc13ae0e3200027f"
  },
  "GPS": {
    "latitude": -7.9766381,
    "longitude": -78.8134873
  },
  "city": "Simbal",
  "name": "COVID CENTER 7",
  "type": "specialized center",
  "address": "3436 Mosinee Circle"
}]