[{
  "_id": {
    "$oid": "61a39a873b0459c2b8c5c827"
  },
  "key": 1,
  "id": {
    "$oid": "61a399bbfc13ae40e5000000"
  },
  "GPS": {
    "latitude": 40.9314367,
    "longitude": 20.0032794
  },
  "city": "Mollas",
  "name": "COVID CENTER 5",
  "type": "specialized center",
  "address": "397 Londonderry Court"
},{
  "_id": {
    "$oid": "61a39a873b0459c2b8c5c828"
  },
  "key": 2,
  "id": {
    "$oid": "61a399bbfc13ae40e5000001"
  },
  "GPS": {
    "latitude": 49.788203,
    "longitude": 19.70598
  },
  "city": "Budzów",
  "name": "Pickens County Medical Center",
  "type": "hospital",
  "address": "482 Lakewood Place",
  "department": 5
},{
  "_id": {
    "$oid": "61a39a873b0459c2b8c5c829"
  },
  "key": 3,
  "id": {
    "$oid": "61a399bbfc13ae40e5000002"
  },
  "GPS": {
    "latitude": 45.632343,
    "longitude": 5.112589
  },
  "city": "Saint-Quentin-Fallavier",
  "name": "Chandler Regional Medical Center",
  "type": "hospital",
  "address": "685 Monument Point",
  "department": 9
},{
  "_id": {
    "$oid": "61a39a873b0459c2b8c5c82a"
  },
  "key": 4,
  "id": {
    "$oid": "61a399bbfc13ae40e5000003"
  },
  "GPS": {
    "latitude": 37.0079695,
    "longitude": 127.2796786
  },
  "city": "Anseong",
  "name": "KK Outpatient Pharmacy",
  "type": "pharmacy",
  "address": "96 Monterey Drive"
},{
  "_id": {
    "$oid": "61a39a873b0459c2b8c5c82b"
  },
  "key": 5,
  "id": {
    "$oid": "61a399bbfc13ae40e5000004"
  },
  "GPS": {
    "latitude": 4.7140373,
    "longitude": 114.6667939
  },
  "city": "Tutong",
  "name": "NHG Pharmacy (CCK Polyclinic)",
  "type": "pharmacy",
  "address": "293 Spohn Hill"
},{
  "_id": {
    "$oid": "61a39a873b0459c2b8c5c82c"
  },
  "key": 6,
  "id": {
    "$oid": "61a399bbfc13ae40e5000005"
  },
  "GPS": {
    "latitude": 56.9938866,
    "longitude": 86.182232
  },
  "city": "Asino",
  "name": "COVID CENTER 34",
  "type": "specialized center",
  "address": "22657 Heath Hill"
},{
  "_id": {
    "$oid": "61a39a873b0459c2b8c5c82d"
  },
  "key": 7,
  "id": {
    "$oid": "61a399bbfc13ae40e5000006"
  },
  "GPS": {
    "latitude": 31.918232,
    "longitude": 119.976948
  },
  "city": "Baizhang",
  "name": "North Baldwin Infirmary",
  "type": "hospital",
  "address": "1 Dovetail Point",
  "department": 7
},{
  "_id": {
    "$oid": "61a39a873b0459c2b8c5c82e"
  },
  "key": 8,
  "id": {
    "$oid": "61a399bbfc13ae40e5000007"
  },
  "GPS": {
    "latitude": 12.6107413,
    "longitude": 122.2756648
  },
  "city": "Cabanbanan",
  "name": "WESTMEAD PHARMACY PTE LTD",
  "type": "pharmacy",
  "address": "3 Meadow Vale Hill"
},{
  "_id": {
    "$oid": "61a39a873b0459c2b8c5c82f"
  },
  "key": 9,
  "id": {
    "$oid": "61a399bbfc13ae40e5000008"
  },
  "GPS": {
    "latitude": 31.263629,
    "longitude": 121.58448
  },
  "city": "Liubo",
  "name": "Springhill Memorial Hospital",
  "type": "hospital",
  "address": "684 Village Circle",
  "department": 8
},{
  "_id": {
    "$oid": "61a39a873b0459c2b8c5c830"
  },
  "key": 10,
  "id": {
    "$oid": "61a399bbfc13ae40e5000009"
  },
  "GPS": {
    "latitude": -8.1233399,
    "longitude": 115.3389332
  },
  "city": "Banjar Kelodan",
  "name": "COVID CENTER 13",
  "type": "specialized center",
  "address": "6 David Hill"
},{
  "_id": {
    "$oid": "61a39a873b0459c2b8c5c831"
  },
  "key": 11,
  "id": {
    "$oid": "61a399bbfc13ae40e500000a"
  },
  "GPS": {
    "latitude": -18.1112146,
    "longitude": 21.6198661
  },
  "city": "Bagani",
  "name": "Crenshaw Community Hospital",
  "type": "hospital",
  "address": "58 Ridgeway Way",
  "department": 8
},{
  "_id": {
    "$oid": "61a39a873b0459c2b8c5c832"
  },
  "key": 12,
  "id": {
    "$oid": "61a399bbfc13ae40e500000b"
  },
  "GPS": {
    "latitude": -9.798194,
    "longitude": 124.4364621
  },
  "city": "Hoi",
  "name": "Sengkang General Hospital Outpatient Pharmacy",
  "type": "pharmacy",
  "address": "729 1st Pass"
},{
  "_id": {
    "$oid": "61a39a873b0459c2b8c5c833"
  },
  "key": 13,
  "id": {
    "$oid": "61a399bbfc13ae40e500000c"
  },
  "GPS": {
    "latitude": 30.60215,
    "longitude": 110.836537
  },
  "city": "Hejiaping",
  "name": "COVID CENTER 11",
  "type": "specialized center",
  "address": "99 Namekagon Hill"
},{
  "_id": {
    "$oid": "61a39a873b0459c2b8c5c834"
  },
  "key": 14,
  "id": {
    "$oid": "61a399bbfc13ae40e500000d"
  },
  "GPS": {
    "latitude": 34.363184,
    "longitude": 107.237743
  },
  "city": "Baoji",
  "name": "Nishino Pharmacy (Shaw House)",
  "type": "pharmacy",
  "address": "6813 Hoepker Parkway"
},{
  "_id": {
    "$oid": "61a39a873b0459c2b8c5c835"
  },
  "key": 15,
  "id": {
    "$oid": "61a399bbfc13ae40e500000e"
  },
  "GPS": {
    "latitude": -3.1572403,
    "longitude": 29.3714909
  },
  "city": "Bubanza",
  "name": "Baptist Medical Center East",
  "type": "hospital",
  "address": "7340 Victoria Pass",
  "department": 3
},{
  "_id": {
    "$oid": "61a39a873b0459c2b8c5c836"
  },
  "key": 16,
  "id": {
    "$oid": "61a399bbfc13ae40e500000f"
  },
  "GPS": {
    "latitude": 14.1811693,
    "longitude": -16.8502879
  },
  "city": "Joal-Fadiout",
  "name": "COVID CENTER 29",
  "type": "specialized center",
  "address": "51 1st Street"
},{
  "_id": {
    "$oid": "61a39a873b0459c2b8c5c837"
  },
  "key": 17,
  "id": {
    "$oid": "61a399bbfc13ae40e5000010"
  },
  "GPS": {
    "latitude": -6.8907337,
    "longitude": 111.2785407
  },
  "city": "Gaplokan",
  "name": "D C H Regional Medical Center",
  "type": "hospital",
  "address": "48 Doe Crossing Junction",
  "department": 5
},{
  "_id": {
    "$oid": "61a39a873b0459c2b8c5c838"
  },
  "key": 18,
  "id": {
    "$oid": "61a399bbfc13ae40e5000011"
  },
  "GPS": {
    "latitude": 39.296173,
    "longitude": 113.690698
  },
  "city": "Jinshanpu",
  "name": "Decatur Morgan Hospital-decatur Campus",
  "type": "hospital",
  "address": "30224 Merchant Parkway",
  "department": 7
},{
  "_id": {
    "$oid": "61a39a873b0459c2b8c5c839"
  },
  "key": 19,
  "id": {
    "$oid": "61a399bbfc13ae40e5000012"
  },
  "GPS": {
    "latitude": -6.9796136,
    "longitude": 110.4269535
  },
  "city": "Gabahan",
  "name": "Providence Alaska Medical Center",
  "type": "hospital",
  "address": "76 Stone Corner Road",
  "department": 1
},{
  "_id": {
    "$oid": "61a39a873b0459c2b8c5c83a"
  },
  "key": 20,
  "id": {
    "$oid": "61a399bbfc13ae40e5000013"
  },
  "GPS": {
    "latitude": 37.1264754,
    "longitude": -8.2996637
  },
  "city": "Guia",
  "name": "Troy Regional Medical Center",
  "type": "hospital",
  "address": "351 7th Point",
  "department": 4
},{
  "_id": {
    "$oid": "61a39a873b0459c2b8c5c83b"
  },
  "key": 21,
  "id": {
    "$oid": "61a399bbfc13ae40e5000014"
  },
  "GPS": {
    "latitude": 28.682309,
    "longitude": 118.244769
  },
  "city": "Yushan",
  "name": "COVID CENTER 32",
  "type": "specialized center",
  "address": "4893 Red Cloud Terrace"
},{
  "_id": {
    "$oid": "61a39a873b0459c2b8c5c83c"
  },
  "key": 22,
  "id": {
    "$oid": "61a399bbfc13ae40e5000015"
  },
  "GPS": {
    "latitude": 49.7961202,
    "longitude": 6.2871406
  },
  "city": "Waldbillig",
  "name": "COVID CENTER 23",
  "type": "specialized center",
  "address": "4367 Swallow Pass"
},{
  "_id": {
    "$oid": "61a39a873b0459c2b8c5c83d"
  },
  "key": 23,
  "id": {
    "$oid": "61a399bbfc13ae40e5000016"
  },
  "GPS": {
    "latitude": 57.2033415,
    "longitude": 14.0338655
  },
  "city": "Värnamo",
  "name": "North Baldwin Infirmary",
  "type": "hospital",
  "address": "16960 Cambridge Crossing",
  "department": 3
},{
  "_id": {
    "$oid": "61a39a873b0459c2b8c5c83e"
  },
  "key": 24,
  "id": {
    "$oid": "61a399bbfc13ae40e5000017"
  },
  "GPS": {
    "latitude": -8.188844,
    "longitude": 122.9287931
  },
  "city": "Waiklibang",
  "name": "Kanakanak Hospital",
  "type": "hospital",
  "address": "50521 Becker Street",
  "department": 2
},{
  "_id": {
    "$oid": "61a39a873b0459c2b8c5c83f"
  },
  "key": 25,
  "id": {
    "$oid": "61a399bbfc13ae40e5000018"
  },
  "GPS": {
    "latitude": -9.5324,
    "longitude": 119.669
  },
  "city": "Waikambila",
  "name": "Eliza Coffee Memorial Hospital",
  "type": "hospital",
  "address": "10 Crownhardt Pass",
  "department": 2
},{
  "_id": {
    "$oid": "61a39a873b0459c2b8c5c840"
  },
  "key": 26,
  "id": {
    "$oid": "61a399bbfc13ae40e5000019"
  },
  "GPS": {
    "latitude": 31.220367,
    "longitude": 121.424624
  },
  "city": "Changning",
  "name": "SGH Retail Pharmacy (Blk 4)",
  "type": "pharmacy",
  "address": "11 Artisan Center"
},{
  "_id": {
    "$oid": "61a39a873b0459c2b8c5c841"
  },
  "key": 27,
  "id": {
    "$oid": "61a399bbfc13ae40e500001a"
  },
  "GPS": {
    "latitude": 24.884626,
    "longitude": 104.308675
  },
  "city": "Luoting",
  "name": "P & L Pharmacy Pte Ltd",
  "type": "pharmacy",
  "address": "5 Delladonna Road"
},{
  "_id": {
    "$oid": "61a39a873b0459c2b8c5c842"
  },
  "key": 28,
  "id": {
    "$oid": "61a399bbfc13ae40e500001b"
  },
  "GPS": {
    "latitude": -19.7963816,
    "longitude": 34.8844867
  },
  "city": "Beira",
  "name": "COVID CENTER 22",
  "type": "specialized center",
  "address": "5 Hanson Drive"
},{
  "_id": {
    "$oid": "61a39a873b0459c2b8c5c843"
  },
  "key": 29,
  "id": {
    "$oid": "61a399bbfc13ae40e500001c"
  },
  "GPS": {
    "latitude": 43.4945737,
    "longitude": 5.8978018
  },
  "city": "Paris 03",
  "name": "COVID CENTER 43",
  "type": "specialized center",
  "address": "49 Commercial Pass"
},{
  "_id": {
    "$oid": "61a39a873b0459c2b8c5c844"
  },
  "key": 30,
  "id": {
    "$oid": "61a399bbfc13ae40e500001d"
  },
  "GPS": {
    "latitude": 37.6086169,
    "longitude": 138.9089988
  },
  "city": "Sanjō",
  "name": "Evergreen Medical Center",
  "type": "hospital",
  "address": "64185 Jenna Center",
  "department": 2
},{
  "_id": {
    "$oid": "61a39a873b0459c2b8c5c845"
  },
  "key": 31,
  "id": {
    "$oid": "61a399bbfc13ae40e500001e"
  },
  "GPS": {
    "latitude": -32.9549324,
    "longitude": 27.9319131
  },
  "city": "East London",
  "name": "COVID CENTER 57",
  "type": "specialized center",
  "address": "1018 Grover Drive"
},{
  "_id": {
    "$oid": "61a39a873b0459c2b8c5c846"
  },
  "key": 32,
  "id": {
    "$oid": "61a399bbfc13ae40e500001f"
  },
  "GPS": {
    "latitude": -34.7121944,
    "longitude": -58.6285183
  },
  "city": "Chavarría",
  "name": "MOUNT ELIZABETH NOVENA HOSPITAL PHARMACY",
  "type": "pharmacy",
  "address": "26 Hooker Lane"
},{
  "_id": {
    "$oid": "61a39a873b0459c2b8c5c847"
  },
  "key": 33,
  "id": {
    "$oid": "61a399bbfc13ae40e5000020"
  },
  "GPS": {
    "latitude": 25.8007724,
    "longitude": -100.4277766
  },
  "city": "San Jose",
  "name": "Marion Regional Medical Center",
  "type": "hospital",
  "address": "3146 Shopko Parkway",
  "department": 2
},{
  "_id": {
    "$oid": "61a39a873b0459c2b8c5c848"
  },
  "key": 34,
  "id": {
    "$oid": "61a399bbfc13ae40e5000021"
  },
  "GPS": {
    "latitude": 45.11803,
    "longitude": 124.823242
  },
  "city": "Qianguo",
  "name": "Children's Hospital Of Alabama",
  "type": "hospital",
  "address": "058 Monterey Lane",
  "department": 10
},{
  "_id": {
    "$oid": "61a39a873b0459c2b8c5c849"
  },
  "key": 35,
  "id": {
    "$oid": "61a399bbfc13ae40e5000022"
  },
  "GPS": {
    "latitude": 18.6220301,
    "longitude": -99.1559935
  },
  "city": "Emiliano Zapata",
  "name": "East Alabama Medical Center",
  "type": "hospital",
  "address": "9 Farragut Drive",
  "department": 10
},{
  "_id": {
    "$oid": "61a39a873b0459c2b8c5c84a"
  },
  "key": 36,
  "id": {
    "$oid": "61a399bbfc13ae40e5000023"
  },
  "GPS": {
    "latitude": 47.55728,
    "longitude": 124.21591
  },
  "city": "Taha Man Zu",
  "name": "COVID CENTER 3",
  "type": "specialized center",
  "address": "5 Northwestern Street"
},{
  "_id": {
    "$oid": "61a39a873b0459c2b8c5c84b"
  },
  "key": 37,
  "id": {
    "$oid": "61a399bbfc13ae40e5000024"
  },
  "GPS": {
    "latitude": 40.7046234,
    "longitude": 23.652122
  },
  "city": "Néa Vrasná",
  "name": "Petersburg Medical Center",
  "type": "hospital",
  "address": "47215 Scofield Road",
  "department": 8
},{
  "_id": {
    "$oid": "61a39a873b0459c2b8c5c84c"
  },
  "key": 38,
  "id": {
    "$oid": "61a399bbfc13ae40e5000025"
  },
  "GPS": {
    "latitude": 39.816173,
    "longitude": 77.37263
  },
  "city": "Xekar",
  "name": "St Vincent's Birmingham",
  "type": "hospital",
  "address": "23540 Kenwood Street",
  "department": 10
},{
  "_id": {
    "$oid": "61a39a873b0459c2b8c5c84d"
  },
  "key": 39,
  "id": {
    "$oid": "61a399bbfc13ae40e5000026"
  },
  "GPS": {
    "latitude": 48.97974,
    "longitude": 33.52638
  },
  "city": "Kamennyye Potoki",
  "name": "Vaughan Regional Medical Center Parkway Campus",
  "type": "hospital",
  "address": "26 Eliot Parkway",
  "department": 2
},{
  "_id": {
    "$oid": "61a39a873b0459c2b8c5c84e"
  },
  "key": 40,
  "id": {
    "$oid": "61a399bbfc13ae40e5000027"
  },
  "GPS": {
    "latitude": 35.9676772,
    "longitude": 126.7366293
  },
  "city": "Kunsan",
  "name": "TAN TOCK SENG HOSPITAL PTE LTD (EMERGENCY PHARMACY)",
  "type": "pharmacy",
  "address": "1 Weeping Birch Point"
},{
  "_id": {
    "$oid": "61a39a873b0459c2b8c5c84f"
  },
  "key": 41,
  "id": {
    "$oid": "61a399bbfc13ae40e5000028"
  },
  "GPS": {
    "latitude": 25.587519,
    "longitude": 112.36902
  },
  "city": "Jiahe",
  "name": "Mobile Infirmary Medical Center",
  "type": "hospital",
  "address": "748 Northfield Road",
  "department": 5
},{
  "_id": {
    "$oid": "61a39a873b0459c2b8c5c850"
  },
  "key": 42,
  "id": {
    "$oid": "61a399bbfc13ae40e5000029"
  },
  "GPS": {
    "latitude": -6.334631,
    "longitude": 106.9093
  },
  "city": "Cilangkap",
  "name": "Thomson Medical Centre",
  "type": "pharmacy",
  "address": "2 Moland Court"
},{
  "_id": {
    "$oid": "61a39a873b0459c2b8c5c851"
  },
  "key": 43,
  "id": {
    "$oid": "61a399bbfc13ae40e500002a"
  },
  "GPS": {
    "latitude": 45.304073,
    "longitude": 130.980894
  },
  "city": "Jiguan",
  "name": "Community Wellness Clinic Queenstown Pharmacy",
  "type": "pharmacy",
  "address": "04 Vermont Avenue"
},{
  "_id": {
    "$oid": "61a39a873b0459c2b8c5c852"
  },
  "key": 44,
  "id": {
    "$oid": "61a399bbfc13ae40e500002b"
  },
  "GPS": {
    "latitude": 45.5946392,
    "longitude": 38.956757
  },
  "city": "Timashëvsk",
  "name": "Marshall Medical Center South",
  "type": "hospital",
  "address": "4 School Circle",
  "department": 1
},{
  "_id": {
    "$oid": "61a39a873b0459c2b8c5c853"
  },
  "key": 45,
  "id": {
    "$oid": "61a399bbfc13ae40e500002c"
  },
  "GPS": {
    "latitude": 14.5951658,
    "longitude": 121.4276451
  },
  "city": "Daraitan",
  "name": "Child Guidance Clinic Health Promotion Board",
  "type": "pharmacy",
  "address": "40971 Luster Crossing"
},{
  "_id": {
    "$oid": "61a39a873b0459c2b8c5c854"
  },
  "key": 46,
  "id": {
    "$oid": "61a399bbfc13ae40e500002d"
  },
  "GPS": {
    "latitude": 44.8055893,
    "longitude": -0.630617
  },
  "city": "Pessac",
  "name": "NATIONAL HEART CENTRE PHARMACY",
  "type": "pharmacy",
  "address": "6717 Scofield Terrace"
},{
  "_id": {
    "$oid": "61a39a873b0459c2b8c5c855"
  },
  "key": 47,
  "id": {
    "$oid": "61a399bbfc13ae40e500002e"
  },
  "GPS": {
    "latitude": 29.1082924,
    "longitude": 119.6364468
  },
  "city": "Huifa",
  "name": "THE DENTAL PHARM",
  "type": "pharmacy",
  "address": "76559 Kennedy Lane"
},{
  "_id": {
    "$oid": "61a39a873b0459c2b8c5c856"
  },
  "key": 48,
  "id": {
    "$oid": "61a399bbfc13ae40e500002f"
  },
  "GPS": {
    "latitude": 53.39009,
    "longitude": 19.1548
  },
  "city": "Jabłonowo Pomorskie",
  "name": "COVID CENTER 45",
  "type": "specialized center",
  "address": "3 Mayer Alley"
},{
  "_id": {
    "$oid": "61a39a873b0459c2b8c5c857"
  },
  "key": 49,
  "id": {
    "$oid": "61a399bbfc13ae40e5000030"
  },
  "GPS": {
    "latitude": 37.9600766,
    "longitude": 58.3260629
  },
  "city": "Ashgabat",
  "name": "Tucson Medical Center",
  "type": "hospital",
  "address": "37711 Shoshone Avenue",
  "department": 3
},{
  "_id": {
    "$oid": "61a39a873b0459c2b8c5c858"
  },
  "key": 50,
  "id": {
    "$oid": "61a399bbfc13ae40e5000031"
  },
  "GPS": {
    "latitude": 38.92,
    "longitude": -76.99
  },
  "city": "Washington",
  "name": "COVID CENTER 14",
  "type": "specialized center",
  "address": "31742 Susan Center"
},{
  "_id": {
    "$oid": "61a39a873b0459c2b8c5c859"
  },
  "key": 51,
  "id": {
    "$oid": "61a399bbfc13ae40e5000032"
  },
  "GPS": {
    "latitude": 15.3252049,
    "longitude": 120.6560014
  },
  "city": "Plaridel",
  "name": "Shelby Baptist Medical Center",
  "type": "hospital",
  "address": "21 Dapin Parkway",
  "department": 3
},{
  "_id": {
    "$oid": "61a39a873b0459c2b8c5c85a"
  },
  "key": 52,
  "id": {
    "$oid": "61a399bbfc13ae40e5000033"
  },
  "GPS": {
    "latitude": 34.747834,
    "longitude": 113.022496
  },
  "city": "Gongyi",
  "name": "COVID CENTER 35",
  "type": "specialized center",
  "address": "24357 Del Mar Park"
},{
  "_id": {
    "$oid": "61a39a873b0459c2b8c5c85b"
  },
  "key": 53,
  "id": {
    "$oid": "61a399bbfc13ae40e5000034"
  },
  "GPS": {
    "latitude": 6.6687831,
    "longitude": 6.6304104
  },
  "city": "Illushi",
  "name": "COVID CENTER 7",
  "type": "specialized center",
  "address": "9 Blaine Park"
},{
  "_id": {
    "$oid": "61a39a873b0459c2b8c5c85c"
  },
  "key": 54,
  "id": {
    "$oid": "61a399bbfc13ae40e5000035"
  },
  "GPS": {
    "latitude": -25.283333,
    "longitude": -69.766667
  },
  "city": "Taltal",
  "name": "TAN TOCK SENG HOSPITAL PTE LTD (EMERGENCY PHARMACY)",
  "type": "pharmacy",
  "address": "2 North Pass"
},{
  "_id": {
    "$oid": "61a39a873b0459c2b8c5c85d"
  },
  "key": 55,
  "id": {
    "$oid": "61a399bbfc13ae40e5000036"
  },
  "GPS": {
    "latitude": 60.3588201,
    "longitude": 22.2240066
  },
  "city": "Turku",
  "name": "COVID CENTER 8",
  "type": "specialized center",
  "address": "77 Bonner Crossing"
},{
  "_id": {
    "$oid": "61a39a873b0459c2b8c5c85e"
  },
  "key": 56,
  "id": {
    "$oid": "61a399bbfc13ae40e5000037"
  },
  "GPS": {
    "latitude": 20.9275148,
    "longitude": 106.4081983
  },
  "city": "Tân Việt",
  "name": "COVID CENTER 5",
  "type": "specialized center",
  "address": "96071 Killdeer Terrace"
},{
  "_id": {
    "$oid": "61a39a873b0459c2b8c5c85f"
  },
  "key": 57,
  "id": {
    "$oid": "61a399bbfc13ae40e5000038"
  },
  "GPS": {
    "latitude": 36.706962,
    "longitude": 119.161748
  },
  "city": "Weifang",
  "name": "Mat-su Regional Medical Center",
  "type": "hospital",
  "address": "32481 Barnett Plaza",
  "department": 8
},{
  "_id": {
    "$oid": "61a39a873b0459c2b8c5c860"
  },
  "key": 58,
  "id": {
    "$oid": "61a399bbfc13ae40e5000039"
  },
  "GPS": {
    "latitude": 22.838345,
    "longitude": 113.343022
  },
  "city": "Lanhe",
  "name": "Norton Sound Regional Hospital",
  "type": "hospital",
  "address": "954 Luster Hill",
  "department": 6
},{
  "_id": {
    "$oid": "61a39a873b0459c2b8c5c861"
  },
  "key": 59,
  "id": {
    "$oid": "61a399bbfc13ae40e500003a"
  },
  "GPS": {
    "latitude": 29.1070609,
    "longitude": 48.1239894
  },
  "city": "Al Manqaf",
  "name": "COVID CENTER 42",
  "type": "specialized center",
  "address": "56950 Bartillon Court"
},{
  "_id": {
    "$oid": "61a39a873b0459c2b8c5c862"
  },
  "key": 60,
  "id": {
    "$oid": "61a399bbfc13ae40e500003b"
  },
  "GPS": {
    "latitude": 31.444052,
    "longitude": 119.329436
  },
  "city": "Tailing",
  "name": "Community Hospital Inc",
  "type": "hospital",
  "address": "67917 Linden Avenue",
  "department": 2
},{
  "_id": {
    "$oid": "61a39a873b0459c2b8c5c863"
  },
  "key": 61,
  "id": {
    "$oid": "61a399bbfc13ae40e500003c"
  },
  "GPS": {
    "latitude": -8.7990258,
    "longitude": 115.2200884
  },
  "city": "Bualu",
  "name": "NATIONAL CANCER CENTRE PHARMACY (LEVEL 1)",
  "type": "pharmacy",
  "address": "45 Fuller Pass"
},{
  "_id": {
    "$oid": "61a39a873b0459c2b8c5c864"
  },
  "key": 62,
  "id": {
    "$oid": "61a399bbfc13ae40e500003d"
  },
  "GPS": {
    "latitude": 50.3399747,
    "longitude": 22.9892667
  },
  "city": "Obsza",
  "name": "Athens Limestone Hospital",
  "type": "hospital",
  "address": "80 Arkansas Junction",
  "department": 9
},{
  "_id": {
    "$oid": "61a39a873b0459c2b8c5c865"
  },
  "key": 63,
  "id": {
    "$oid": "61a399bbfc13ae40e500003e"
  },
  "GPS": {
    "latitude": 37.8311926,
    "longitude": 112.5870889
  },
  "city": "Dicun",
  "name": "COVID CENTER 51",
  "type": "specialized center",
  "address": "219 Southridge Avenue"
},{
  "_id": {
    "$oid": "61a39a873b0459c2b8c5c866"
  },
  "key": 64,
  "id": {
    "$oid": "61a399bbfc13ae40e500003f"
  },
  "GPS": {
    "latitude": 41.414967,
    "longitude": -8.3881947
  },
  "city": "Pedome",
  "name": "National University Hospital (s) Pte Ltd (Pharmacy @ NCIS)",
  "type": "pharmacy",
  "address": "84386 Meadow Vale Way"
},{
  "_id": {
    "$oid": "61a39a873b0459c2b8c5c867"
  },
  "key": 65,
  "id": {
    "$oid": "61a399bbfc13ae40e5000040"
  },
  "GPS": {
    "latitude": 43.446712,
    "longitude": 45.7756846
  },
  "city": "Tolstoy-Yurt",
  "name": "COVID CENTER 43",
  "type": "specialized center",
  "address": "8073 Badeau Road"
},{
  "_id": {
    "$oid": "61a39a873b0459c2b8c5c868"
  },
  "key": 66,
  "id": {
    "$oid": "61a399bbfc13ae40e5000041"
  },
  "GPS": {
    "latitude": 45.3652354,
    "longitude": 14.3926584
  },
  "city": "Marinići",
  "name": "Cordova Community Medical Center",
  "type": "hospital",
  "address": "59816 Towne Park",
  "department": 3
},{
  "_id": {
    "$oid": "61a39a873b0459c2b8c5c869"
  },
  "key": 67,
  "id": {
    "$oid": "61a399bbfc13ae40e5000042"
  },
  "GPS": {
    "latitude": 39.026091,
    "longitude": -95.7226884
  },
  "city": "Topeka",
  "name": "Kanakanak Hospital",
  "type": "hospital",
  "address": "454 Arapahoe Drive",
  "department": 10
},{
  "_id": {
    "$oid": "61a39a873b0459c2b8c5c86a"
  },
  "key": 68,
  "id": {
    "$oid": "61a399bbfc13ae40e5000043"
  },
  "GPS": {
    "latitude": 31.32847,
    "longitude": 118.892085
  },
  "city": "Gaocun",
  "name": "Scottsdale Osborn Medical Center",
  "type": "hospital",
  "address": "25 Aberg Place",
  "department": 10
},{
  "_id": {
    "$oid": "61a39a873b0459c2b8c5c86b"
  },
  "key": 69,
  "id": {
    "$oid": "61a399bbfc13ae40e5000044"
  },
  "GPS": {
    "latitude": 14.2462858,
    "longitude": 121.4934758
  },
  "city": "Baylo",
  "name": "WOODS PHARMACY PTE LTD",
  "type": "pharmacy",
  "address": "74371 Butterfield Way"
},{
  "_id": {
    "$oid": "61a39a873b0459c2b8c5c86c"
  },
  "key": 70,
  "id": {
    "$oid": "61a399bbfc13ae40e5000045"
  },
  "GPS": {
    "latitude": 20.007968,
    "longitude": 110.293561
  },
  "city": "Xiuying",
  "name": "Maniilaq Health Center",
  "type": "hospital",
  "address": "7 Clove Point",
  "department": 6
},{
  "_id": {
    "$oid": "61a39a873b0459c2b8c5c86d"
  },
  "key": 71,
  "id": {
    "$oid": "61a399bbfc13ae40e5000046"
  },
  "GPS": {
    "latitude": 60.0528555,
    "longitude": 23.6314746
  },
  "city": "Ekenäs",
  "name": "COVID CENTER 3",
  "type": "specialized center",
  "address": "63 Ridgeview Lane"
},{
  "_id": {
    "$oid": "61a39a873b0459c2b8c5c86e"
  },
  "key": 72,
  "id": {
    "$oid": "61a399bbfc13ae40e5000047"
  },
  "GPS": {
    "latitude": 47.1844184,
    "longitude": 35.1072745
  },
  "city": "Tymoshivka",
  "name": "COVID CENTER 15",
  "type": "specialized center",
  "address": "0943 Clove Street"
},{
  "_id": {
    "$oid": "61a39a873b0459c2b8c5c86f"
  },
  "key": 73,
  "id": {
    "$oid": "61a399bbfc13ae40e5000048"
  },
  "GPS": {
    "latitude": 44.2682727,
    "longitude": 19.8906547
  },
  "city": "Valjevo",
  "name": "Helen Keller Memorial Hospital",
  "type": "hospital",
  "address": "4 Comanche Drive",
  "department": 7
},{
  "_id": {
    "$oid": "61a39a873b0459c2b8c5c870"
  },
  "key": 74,
  "id": {
    "$oid": "61a399bbfc13ae40e5000049"
  },
  "GPS": {
    "latitude": 49.3932119,
    "longitude": 15.8838159
  },
  "city": "Měřín",
  "name": "THE DENTAL PHARM",
  "type": "pharmacy",
  "address": "4018 Ryan Point"
},{
  "_id": {
    "$oid": "61a39a873b0459c2b8c5c871"
  },
  "key": 75,
  "id": {
    "$oid": "61a399bbfc13ae40e500004a"
  },
  "GPS": {
    "latitude": 50.7885238,
    "longitude": 37.8995347
  },
  "city": "Novyy Oskol",
  "name": "Ketchikan Medical Center",
  "type": "hospital",
  "address": "40 Dorton Trail",
  "department": 5
},{
  "_id": {
    "$oid": "61a39a873b0459c2b8c5c872"
  },
  "key": 76,
  "id": {
    "$oid": "61a399bbfc13ae40e500004b"
  },
  "GPS": {
    "latitude": 41.7220316,
    "longitude": 25.3726469
  },
  "city": "Kŭrdzhali",
  "name": "Baptist Medical Center South",
  "type": "hospital",
  "address": "95446 Everett Point",
  "department": 7
},{
  "_id": {
    "$oid": "61a39a873b0459c2b8c5c873"
  },
  "key": 77,
  "id": {
    "$oid": "61a399bbfc13ae40e500004c"
  },
  "GPS": {
    "latitude": 0.4016398,
    "longitude": 32.043969
  },
  "city": "Mityana",
  "name": "PARKWAY EAST HOSPITAL PHARMACY",
  "type": "pharmacy",
  "address": "6155 Prairie Rose Parkway"
},{
  "_id": {
    "$oid": "61a39a873b0459c2b8c5c874"
  },
  "key": 78,
  "id": {
    "$oid": "61a399bbfc13ae40e500004d"
  },
  "GPS": {
    "latitude": 37.1764814,
    "longitude": -8.201073
  },
  "city": "Paderne",
  "name": "COVID CENTER 56",
  "type": "specialized center",
  "address": "654 Banding Crossing"
},{
  "_id": {
    "$oid": "61a39a873b0459c2b8c5c875"
  },
  "key": 79,
  "id": {
    "$oid": "61a399bbfc13ae40e500004e"
  },
  "GPS": {
    "latitude": -45.8405005,
    "longitude": -67.4686475
  },
  "city": "Comodoro Rivadavia",
  "name": "CONCORD HEALTHCARE RETAIL PHARMACY",
  "type": "pharmacy",
  "address": "76 Portage Plaza"
},{
  "_id": {
    "$oid": "61a39a873b0459c2b8c5c876"
  },
  "key": 80,
  "id": {
    "$oid": "61a399bbfc13ae40e500004f"
  },
  "GPS": {
    "latitude": 29.116031,
    "longitude": 112.567886
  },
  "city": "Sijihong",
  "name": "St. Joseph's Hospital And Medical Center",
  "type": "hospital",
  "address": "21 Dryden Point",
  "department": 10
},{
  "_id": {
    "$oid": "61a39a873b0459c2b8c5c877"
  },
  "key": 81,
  "id": {
    "$oid": "61a399bbfc13ae40e5000050"
  },
  "GPS": {
    "latitude": 60.3560649,
    "longitude": 5.3446343
  },
  "city": "Bergen",
  "name": "Abrazo Central Campus",
  "type": "hospital",
  "address": "26216 Sauthoff Pass",
  "department": 6
},{
  "_id": {
    "$oid": "61a39a873b0459c2b8c5c878"
  },
  "key": 82,
  "id": {
    "$oid": "61a399bbfc13ae40e5000051"
  },
  "GPS": {
    "latitude": -10.7194641,
    "longitude": -62.2542716
  },
  "city": "Ouro Preto do Oeste",
  "name": "Providence Kodiak Island Medical Ctr",
  "type": "hospital",
  "address": "1 Autumn Leaf Lane",
  "department": 3
},{
  "_id": {
    "$oid": "61a39a873b0459c2b8c5c879"
  },
  "key": 83,
  "id": {
    "$oid": "61a399bbfc13ae40e5000052"
  },
  "GPS": {
    "latitude": 51.287518,
    "longitude": 27.2018656
  },
  "city": "Rokytne",
  "name": "Stringfellow Memorial Hospital",
  "type": "hospital",
  "address": "1 Oneill Crossing",
  "department": 5
},{
  "_id": {
    "$oid": "61a39a873b0459c2b8c5c87a"
  },
  "key": 84,
  "id": {
    "$oid": "61a399bbfc13ae40e5000053"
  },
  "GPS": {
    "latitude": 30.898495,
    "longitude": 118.891482
  },
  "city": "Sunbu",
  "name": "Callahan Eye Hospital",
  "type": "hospital",
  "address": "07 Schmedeman Hill",
  "department": 2
},{
  "_id": {
    "$oid": "61a39a873b0459c2b8c5c87b"
  },
  "key": 85,
  "id": {
    "$oid": "61a399bbfc13ae40e5000054"
  },
  "GPS": {
    "latitude": 13.3743393,
    "longitude": 108.3989809
  },
  "city": "A Yun Pa",
  "name": "MUSTAFA PHARMACY",
  "type": "pharmacy",
  "address": "59587 Portage Place"
},{
  "_id": {
    "$oid": "61a39a873b0459c2b8c5c87c"
  },
  "key": 86,
  "id": {
    "$oid": "61a399bbfc13ae40e5000055"
  },
  "GPS": {
    "latitude": -19.5722805,
    "longitude": -65.7550063
  },
  "city": "Potosí",
  "name": "COVID CENTER 18",
  "type": "specialized center",
  "address": "850 Melrose Drive"
},{
  "_id": {
    "$oid": "61a39a873b0459c2b8c5c87d"
  },
  "key": 87,
  "id": {
    "$oid": "61a399bbfc13ae40e5000056"
  },
  "GPS": {
    "latitude": 34.534625,
    "longitude": 69.1357318
  },
  "city": "Bāgh-e Maīdān",
  "name": "Central Peninsula General Hospital",
  "type": "hospital",
  "address": "908 Redwing Circle",
  "department": 9
},{
  "_id": {
    "$oid": "61a39a873b0459c2b8c5c87e"
  },
  "key": 88,
  "id": {
    "$oid": "61a399bbfc13ae40e5000057"
  },
  "GPS": {
    "latitude": -20.2884188,
    "longitude": 57.3779066
  },
  "city": "Flic en Flac",
  "name": "MT ALVERNIA HOSPITAL RETAIL PHARMACY",
  "type": "pharmacy",
  "address": "838 Rusk Trail"
},{
  "_id": {
    "$oid": "61a39a873b0459c2b8c5c87f"
  },
  "key": 89,
  "id": {
    "$oid": "61a399bbfc13ae40e5000058"
  },
  "GPS": {
    "latitude": -34.6558079,
    "longitude": -58.3734773
  },
  "city": "Herrera",
  "name": "Yukon Kuskokwim Delta Reg Hospital",
  "type": "hospital",
  "address": "0142 Laurel Terrace",
  "department": 2
},{
  "_id": {
    "$oid": "61a39a873b0459c2b8c5c880"
  },
  "key": 90,
  "id": {
    "$oid": "61a399bbfc13ae40e5000059"
  },
  "GPS": {
    "latitude": 57.6938555,
    "longitude": 11.9704401
  },
  "city": "Göteborg",
  "name": "COVID CENTER 45",
  "type": "specialized center",
  "address": "6 Marquette Road"
},{
  "_id": {
    "$oid": "61a39a873b0459c2b8c5c881"
  },
  "key": 91,
  "id": {
    "$oid": "61a399bbfc13ae40e500005a"
  },
  "GPS": {
    "latitude": 3.4698023,
    "longitude": 31.2483291
  },
  "city": "Yumbe",
  "name": "Floyd Cherokee Medical Center",
  "type": "hospital",
  "address": "12 Express Alley",
  "department": 10
},{
  "_id": {
    "$oid": "61a39a873b0459c2b8c5c882"
  },
  "key": 92,
  "id": {
    "$oid": "61a399bbfc13ae40e500005b"
  },
  "GPS": {
    "latitude": 53.46464,
    "longitude": 0.04134
  },
  "city": "West End",
  "name": "Flowers Hospital",
  "type": "hospital",
  "address": "4990 Stoughton Alley",
  "department": 1
},{
  "_id": {
    "$oid": "61a39a873b0459c2b8c5c883"
  },
  "key": 93,
  "id": {
    "$oid": "61a399bbfc13ae40e500005c"
  },
  "GPS": {
    "latitude": 31.7284972,
    "longitude": -106.4899163
  },
  "city": "Obrera",
  "name": "Greene County Hospital",
  "type": "hospital",
  "address": "13 Delaware Alley",
  "department": 5
},{
  "_id": {
    "$oid": "61a39a873b0459c2b8c5c884"
  },
  "key": 94,
  "id": {
    "$oid": "61a399bbfc13ae40e500005d"
  },
  "GPS": {
    "latitude": 51.561779,
    "longitude": 7.1090932
  },
  "city": "Taoxi",
  "name": "Alexandra Hospital Retail Pharmacy",
  "type": "pharmacy",
  "address": "14653 Elka Place"
},{
  "_id": {
    "$oid": "61a39a873b0459c2b8c5c885"
  },
  "key": 95,
  "id": {
    "$oid": "61a399bbfc13ae40e500005e"
  },
  "GPS": {
    "latitude": -32.9271629,
    "longitude": -60.6962267
  },
  "city": "Junín",
  "name": "Athens Limestone Hospital",
  "type": "hospital",
  "address": "1178 Hansons Road",
  "department": 3
},{
  "_id": {
    "$oid": "61a39a873b0459c2b8c5c886"
  },
  "key": 96,
  "id": {
    "$oid": "61a399bbfc13ae40e500005f"
  },
  "GPS": {
    "latitude": 8.046425,
    "longitude": 124.933677
  },
  "city": "Lantapan",
  "name": "COVID CENTER 20",
  "type": "specialized center",
  "address": "821 Mallard Pass"
},{
  "_id": {
    "$oid": "61a39a873b0459c2b8c5c887"
  },
  "key": 97,
  "id": {
    "$oid": "61a399bbfc13ae40e5000060"
  },
  "GPS": {
    "latitude": -29.8355529,
    "longitude": 30.9958074
  },
  "city": "Berea",
  "name": "John C. Lincoln North Mountain Hospital",
  "type": "hospital",
  "address": "45 Ilene Point",
  "department": 2
},{
  "_id": {
    "$oid": "61a39a873b0459c2b8c5c888"
  },
  "key": 98,
  "id": {
    "$oid": "61a399bbfc13ae40e5000061"
  },
  "GPS": {
    "latitude": -8.0580651,
    "longitude": -79.0552494
  },
  "city": "La Esperanza",
  "name": "Alchemy Pharmacy",
  "type": "pharmacy",
  "address": "594 Columbus Park"
},{
  "_id": {
    "$oid": "61a39a873b0459c2b8c5c889"
  },
  "key": 99,
  "id": {
    "$oid": "61a399bbfc13ae40e5000062"
  },
  "GPS": {
    "latitude": 43.7745094,
    "longitude": 16.8628891
  },
  "city": "Orguz",
  "name": "Alexandra Hospital Retail Pharmacy",
  "type": "pharmacy",
  "address": "18 Kipling Place"
},{
  "_id": {
    "$oid": "61a39a873b0459c2b8c5c88a"
  },
  "key": 100,
  "id": {
    "$oid": "61a399bbfc13ae40e5000063"
  },
  "GPS": {
    "latitude": 43.57344,
    "longitude": 44.06134
  },
  "city": "Kotlyarevskaya",
  "name": "Chandler Regional Medical Center",
  "type": "hospital",
  "address": "6084 Lake View Way",
  "department": 6
},{
  "_id": {
    "$oid": "61a39a873b0459c2b8c5c88b"
  },
  "key": 101,
  "id": {
    "$oid": "61a399bbfc13ae40e5000064"
  },
  "GPS": {
    "latitude": 29.367984,
    "longitude": 111.177234
  },
  "city": "Lingxi",
  "name": "COVID CENTER 29",
  "type": "specialized center",
  "address": "4731 Milwaukee Point"
},{
  "_id": {
    "$oid": "61a39a873b0459c2b8c5c88c"
  },
  "key": 102,
  "id": {
    "$oid": "61a399bbfc13ae40e5000065"
  },
  "GPS": {
    "latitude": -0.1882802,
    "longitude": 10.7605239
  },
  "city": "Ndjolé",
  "name": "Alaska Regional Hospital",
  "type": "hospital",
  "address": "8 American Point",
  "department": 6
},{
  "_id": {
    "$oid": "61a39a873b0459c2b8c5c88d"
  },
  "key": 103,
  "id": {
    "$oid": "61a399bbfc13ae40e5000066"
  },
  "GPS": {
    "latitude": -8.1565483,
    "longitude": -35.3685679
  },
  "city": "Pombos",
  "name": "Fairbanks Memorial Hospital",
  "type": "hospital",
  "address": "4931 Westend Circle",
  "department": 8
},{
  "_id": {
    "$oid": "61a39a873b0459c2b8c5c88e"
  },
  "key": 104,
  "id": {
    "$oid": "61a399bbfc13ae40e5000067"
  },
  "GPS": {
    "latitude": 41.548437,
    "longitude": 82.433337
  },
  "city": "Youludu Sibage",
  "name": "Providence Hospital",
  "type": "hospital",
  "address": "95232 6th Lane",
  "department": 1
},{
  "_id": {
    "$oid": "61a39a873b0459c2b8c5c88f"
  },
  "key": 105,
  "id": {
    "$oid": "61a399bbfc13ae40e5000068"
  },
  "GPS": {
    "latitude": 26.1256441,
    "longitude": 50.4980362
  },
  "city": "Madīnat Ḩamad",
  "name": "Tan Tock Seng Hospital (Pharmacy Level 2)",
  "type": "pharmacy",
  "address": "2 Roxbury Road"
},{
  "_id": {
    "$oid": "61a39a873b0459c2b8c5c890"
  },
  "key": 106,
  "id": {
    "$oid": "61a399bbfc13ae40e5000069"
  },
  "GPS": {
    "latitude": 12.4069994,
    "longitude": 4.647618
  },
  "city": "Tambawel",
  "name": "Coosa Valley Medical Center",
  "type": "hospital",
  "address": "433 Mariners Cove Crossing",
  "department": 2
},{
  "_id": {
    "$oid": "61a39a873b0459c2b8c5c891"
  },
  "key": 107,
  "id": {
    "$oid": "61a399bbfc13ae40e500006a"
  },
  "GPS": {
    "latitude": -6.7816552,
    "longitude": 105.6969788
  },
  "city": "Manglid",
  "name": "National Centre for Infectious Disease (Outpatient Pharmacy)",
  "type": "pharmacy",
  "address": "2937 Fieldstone Circle"
},{
  "_id": {
    "$oid": "61a39a873b0459c2b8c5c892"
  },
  "key": 108,
  "id": {
    "$oid": "61a399bbfc13ae40e500006b"
  },
  "GPS": {
    "latitude": 52.0726169,
    "longitude": 4.3505874
  },
  "city": "Voorburg",
  "name": "COVID CENTER 6",
  "type": "specialized center",
  "address": "1508 Maple Way"
},{
  "_id": {
    "$oid": "61a39a873b0459c2b8c5c893"
  },
  "key": 109,
  "id": {
    "$oid": "61a399bbfc13ae40e500006c"
  },
  "GPS": {
    "latitude": -6.9757129,
    "longitude": 107.5801033
  },
  "city": "Margahayu",
  "name": "COVID CENTER 44",
  "type": "specialized center",
  "address": "27095 Miller Alley"
},{
  "_id": {
    "$oid": "61a39a873b0459c2b8c5c894"
  },
  "key": 110,
  "id": {
    "$oid": "61a399bbfc13ae40e500006d"
  },
  "GPS": {
    "latitude": 40.1072856,
    "longitude": 20.3651385
  },
  "city": "Skore",
  "name": "Nishino Pharmacy (Shaw House)",
  "type": "pharmacy",
  "address": "86488 Lyons Point"
},{
  "_id": {
    "$oid": "61a39a873b0459c2b8c5c895"
  },
  "key": 111,
  "id": {
    "$oid": "61a399bbfc13ae40e500006e"
  },
  "GPS": {
    "latitude": 31.298974,
    "longitude": 120.585289
  },
  "city": "Duzhou",
  "name": "Providence Hospital",
  "type": "hospital",
  "address": "2 Carey Trail",
  "department": 8
},{
  "_id": {
    "$oid": "61a39a873b0459c2b8c5c896"
  },
  "key": 112,
  "id": {
    "$oid": "61a399bbfc13ae40e500006f"
  },
  "GPS": {
    "latitude": 20.7917375,
    "longitude": -102.7817591
  },
  "city": "La Loma",
  "name": "COVID CENTER 16",
  "type": "specialized center",
  "address": "1 Dixon Terrace"
},{
  "_id": {
    "$oid": "61a39a873b0459c2b8c5c897"
  },
  "key": 113,
  "id": {
    "$oid": "61a399bbfc13ae40e5000070"
  },
  "GPS": {
    "latitude": -3.5564921,
    "longitude": -80.4270885
  },
  "city": "Tumbes",
  "name": "COVID CENTER 37",
  "type": "specialized center",
  "address": "36742 Parkside Lane"
},{
  "_id": {
    "$oid": "61a39a873b0459c2b8c5c898"
  },
  "key": 114,
  "id": {
    "$oid": "61a399bbfc13ae40e5000071"
  },
  "GPS": {
    "latitude": 8.60972,
    "longitude": -13.19
  },
  "city": "Masoyila",
  "name": "ST LUKE'S HOSPITAL BLOCK A",
  "type": "pharmacy",
  "address": "055 Stuart Junction"
},{
  "_id": {
    "$oid": "61a39a873b0459c2b8c5c899"
  },
  "key": 115,
  "id": {
    "$oid": "61a399bbfc13ae40e5000072"
  },
  "GPS": {
    "latitude": 23.646106,
    "longitude": 111.69805
  },
  "city": "Duping",
  "name": "Marion Regional Medical Center",
  "type": "hospital",
  "address": "29709 Twin Pines Terrace",
  "department": 10
},{
  "_id": {
    "$oid": "61a39a873b0459c2b8c5c89a"
  },
  "key": 116,
  "id": {
    "$oid": "61a399bbfc13ae40e5000073"
  },
  "GPS": {
    "latitude": 22.0080725,
    "longitude": 113.3785933
  },
  "city": "Sanzao",
  "name": "Baptist Medical Center East",
  "type": "hospital",
  "address": "8848 Westport Court",
  "department": 10
},{
  "_id": {
    "$oid": "61a39a873b0459c2b8c5c89b"
  },
  "key": 117,
  "id": {
    "$oid": "61a399bbfc13ae40e5000074"
  },
  "GPS": {
    "latitude": 45.4698284,
    "longitude": 13.6405292
  },
  "city": "Lucija",
  "name": "KK Emergency Pharmacy",
  "type": "pharmacy",
  "address": "51 Mesta Crossing"
},{
  "_id": {
    "$oid": "61a39a873b0459c2b8c5c89c"
  },
  "key": 118,
  "id": {
    "$oid": "61a399bbfc13ae40e5000075"
  },
  "GPS": {
    "latitude": 53.1121503,
    "longitude": 48.4211315
  },
  "city": "Syzran’",
  "name": "COVID CENTER 54",
  "type": "specialized center",
  "address": "38978 Merrick Drive"
},{
  "_id": {
    "$oid": "61a39a873b0459c2b8c5c89d"
  },
  "key": 119,
  "id": {
    "$oid": "61a399bbfc13ae40e5000076"
  },
  "GPS": {
    "latitude": -19.9125279,
    "longitude": -41.4812771
  },
  "city": "Mutum",
  "name": "St. Joseph's Hospital And Medical Center",
  "type": "hospital",
  "address": "51 Green Crossing",
  "department": 10
},{
  "_id": {
    "$oid": "61a39a873b0459c2b8c5c89e"
  },
  "key": 120,
  "id": {
    "$oid": "61a399bbfc13ae40e5000077"
  },
  "GPS": {
    "latitude": 48.8588029,
    "longitude": 24.9968117
  },
  "city": "Tlumach",
  "name": "Grandview Medical Center",
  "type": "hospital",
  "address": "8 Killdeer Way",
  "department": 3
},{
  "_id": {
    "$oid": "61a39a873b0459c2b8c5c89f"
  },
  "key": 121,
  "id": {
    "$oid": "61a399bbfc13ae40e5000078"
  },
  "GPS": {
    "latitude": 26.091588,
    "longitude": 119.303552
  },
  "city": "Beidao",
  "name": "Gadsden Regional Medical Center",
  "type": "hospital",
  "address": "81 Nancy Lane",
  "department": 7
},{
  "_id": {
    "$oid": "61a39a873b0459c2b8c5c8a0"
  },
  "key": 122,
  "id": {
    "$oid": "61a399bbfc13ae40e5000079"
  },
  "GPS": {
    "latitude": -8.0634771,
    "longitude": 113.8227792
  },
  "city": "Sukowono",
  "name": "COVID CENTER 54",
  "type": "specialized center",
  "address": "8332 Starling Way"
},{
  "_id": {
    "$oid": "61a39a873b0459c2b8c5c8a1"
  },
  "key": 123,
  "id": {
    "$oid": "61a399bbfc13ae40e500007a"
  },
  "GPS": {
    "latitude": 43.4945737,
    "longitude": 5.8978018
  },
  "city": "Paris 04",
  "name": "Thomson Medical Centre",
  "type": "pharmacy",
  "address": "272 Morrow Street"
},{
  "_id": {
    "$oid": "61a39a873b0459c2b8c5c8a2"
  },
  "key": 124,
  "id": {
    "$oid": "61a399bbfc13ae40e500007b"
  },
  "GPS": {
    "latitude": 58.002775,
    "longitude": 25.9222439
  },
  "city": "Tõrva",
  "name": "COVID CENTER 1",
  "type": "specialized center",
  "address": "4888 Colorado Drive"
},{
  "_id": {
    "$oid": "61a39a873b0459c2b8c5c8a3"
  },
  "key": 125,
  "id": {
    "$oid": "61a399bbfc13ae40e500007c"
  },
  "GPS": {
    "latitude": 30.7,
    "longitude": -88.11
  },
  "city": "Mobile",
  "name": "Nishino Pharmacy (Shaw House)",
  "type": "pharmacy",
  "address": "663 Waubesa Pass"
},{
  "_id": {
    "$oid": "61a39a873b0459c2b8c5c8a4"
  },
  "key": 126,
  "id": {
    "$oid": "61a399bbfc13ae40e500007d"
  },
  "GPS": {
    "latitude": 35.613293,
    "longitude": 106.119491
  },
  "city": "Longde Chengguanzhen",
  "name": "Vaughan Regional Medical Center Parkway Campus",
  "type": "hospital",
  "address": "75 Portage Court",
  "department": 4
},{
  "_id": {
    "$oid": "61a39a873b0459c2b8c5c8a5"
  },
  "key": 127,
  "id": {
    "$oid": "61a399bbfc13ae40e500007e"
  },
  "GPS": {
    "latitude": 11.8586314,
    "longitude": -86.2412543
  },
  "city": "Diriamba",
  "name": "SGH Retail Pharmacy (Blk 4)",
  "type": "pharmacy",
  "address": "93931 Superior Lane"
},{
  "_id": {
    "$oid": "61a39a873b0459c2b8c5c8a6"
  },
  "key": 128,
  "id": {
    "$oid": "61a399bbfc13ae40e500007f"
  },
  "GPS": {
    "latitude": 63.4529778,
    "longitude": 48.8833546
  },
  "city": "Koslan",
  "name": "ALPS PHARMACY",
  "type": "pharmacy",
  "address": "18226 Scott Park"
},{
  "_id": {
    "$oid": "61a39a873b0459c2b8c5c8a7"
  },
  "key": 129,
  "id": {
    "$oid": "61a399bbfc13ae40e5000080"
  },
  "GPS": {
    "latitude": 41.2749848,
    "longitude": -8.0080212
  },
  "city": "Várzea",
  "name": "Mt Edgecumbe Hospital",
  "type": "hospital",
  "address": "2071 Lake View Point",
  "department": 2
},{
  "_id": {
    "$oid": "61a39a873b0459c2b8c5c8a8"
  },
  "key": 130,
  "id": {
    "$oid": "61a399bcfc13ae40e5000081"
  },
  "GPS": {
    "latitude": 50.6162099,
    "longitude": 33.8468153
  },
  "city": "Lypova Dolyna",
  "name": "PARKWAY EAST HOSPITAL PHARMACY",
  "type": "pharmacy",
  "address": "29583 Oakridge Place"
},{
  "_id": {
    "$oid": "61a39a873b0459c2b8c5c8a9"
  },
  "key": 131,
  "id": {
    "$oid": "61a399bcfc13ae40e5000082"
  },
  "GPS": {
    "latitude": -34.3042878,
    "longitude": -57.2310521
  },
  "city": "Nueva Helvecia",
  "name": "COVID CENTER 44",
  "type": "specialized center",
  "address": "45 Johnson Hill"
},{
  "_id": {
    "$oid": "61a39a873b0459c2b8c5c8aa"
  },
  "key": 132,
  "id": {
    "$oid": "61a399bcfc13ae40e5000083"
  },
  "GPS": {
    "latitude": 11.1449142,
    "longitude": 124.8326192
  },
  "city": "Jaro",
  "name": "COVID CENTER 9",
  "type": "specialized center",
  "address": "4 Toban Avenue"
},{
  "_id": {
    "$oid": "61a39a873b0459c2b8c5c8ab"
  },
  "key": 133,
  "id": {
    "$oid": "61a399bcfc13ae40e5000084"
  },
  "GPS": {
    "latitude": 41.0174461,
    "longitude": -7.7750036
  },
  "city": "Tarouca",
  "name": "Providence Alaska Medical Center",
  "type": "hospital",
  "address": "4875 Crownhardt Point",
  "department": 1
},{
  "_id": {
    "$oid": "61a39a873b0459c2b8c5c8ac"
  },
  "key": 134,
  "id": {
    "$oid": "61a399bcfc13ae40e5000085"
  },
  "GPS": {
    "latitude": 23.1216171,
    "longitude": 113.2694916
  },
  "city": "Jubao",
  "name": "Georgiana Medical Center",
  "type": "hospital",
  "address": "360 Fairview Hill",
  "department": 10
},{
  "_id": {
    "$oid": "61a39a873b0459c2b8c5c8ad"
  },
  "key": 135,
  "id": {
    "$oid": "61a399bcfc13ae40e5000086"
  },
  "GPS": {
    "latitude": 48.3909721,
    "longitude": -4.4854059
  },
  "city": "Brest",
  "name": "COVID CENTER 31",
  "type": "specialized center",
  "address": "4 Crowley Drive"
},{
  "_id": {
    "$oid": "61a39a873b0459c2b8c5c8ae"
  },
  "key": 136,
  "id": {
    "$oid": "61a399bcfc13ae40e5000087"
  },
  "GPS": {
    "latitude": 5.9840985,
    "longitude": 116.0761121
  },
  "city": "Kota Kinabalu",
  "name": "Choctaw General Hospital",
  "type": "hospital",
  "address": "9701 Acker Way",
  "department": 7
},{
  "_id": {
    "$oid": "61a39a873b0459c2b8c5c8af"
  },
  "key": 137,
  "id": {
    "$oid": "61a399bcfc13ae40e5000088"
  },
  "GPS": {
    "latitude": 13.4597697,
    "longitude": 44.0127731
  },
  "city": "Al Misrākh",
  "name": "Mount Elizabeth Hospital",
  "type": "pharmacy",
  "address": "795 Del Mar Circle"
},{
  "_id": {
    "$oid": "61a39a873b0459c2b8c5c8b0"
  },
  "key": 138,
  "id": {
    "$oid": "61a399bcfc13ae40e5000089"
  },
  "GPS": {
    "latitude": 35.0107648,
    "longitude": 69.1625896
  },
  "city": "Charikar",
  "name": "Prattville Baptist Hospital",
  "type": "hospital",
  "address": "68680 Harbort Drive",
  "department": 5
},{
  "_id": {
    "$oid": "61a39a873b0459c2b8c5c8b1"
  },
  "key": 139,
  "id": {
    "$oid": "61a399bcfc13ae40e500008a"
  },
  "GPS": {
    "latitude": 51.1018522,
    "longitude": 47.3045126
  },
  "city": "Repnoye",
  "name": "Tucson Medical Center",
  "type": "hospital",
  "address": "162 Continental Trail",
  "department": 7
},{
  "_id": {
    "$oid": "61a39a873b0459c2b8c5c8b2"
  },
  "key": 140,
  "id": {
    "$oid": "61a399bcfc13ae40e500008b"
  },
  "GPS": {
    "latitude": 47.16663,
    "longitude": -55.14829
  },
  "city": "Marystown",
  "name": "Flowers Hospital",
  "type": "hospital",
  "address": "1146 Kinsman Drive",
  "department": 2
},{
  "_id": {
    "$oid": "61a39a873b0459c2b8c5c8b3"
  },
  "key": 141,
  "id": {
    "$oid": "61a399bcfc13ae40e500008c"
  },
  "GPS": {
    "latitude": 38.343295,
    "longitude": 114.684014
  },
  "city": "Xinle",
  "name": "Monroe County Hospital",
  "type": "hospital",
  "address": "782 Stephen Park",
  "department": 4
},{
  "_id": {
    "$oid": "61a39a873b0459c2b8c5c8b4"
  },
  "key": 142,
  "id": {
    "$oid": "61a399bcfc13ae40e500008d"
  },
  "GPS": {
    "latitude": 35.342561,
    "longitude": 101.903378
  },
  "city": "Zhamao",
  "name": "Mizell Memorial Hospital",
  "type": "hospital",
  "address": "0441 Sutteridge Circle",
  "department": 1
},{
  "_id": {
    "$oid": "61a39a873b0459c2b8c5c8b5"
  },
  "key": 143,
  "id": {
    "$oid": "61a399bcfc13ae40e500008e"
  },
  "GPS": {
    "latitude": 31.4292388,
    "longitude": 31.1252135
  },
  "city": "Al Ḩāmūl",
  "name": "Vaughan Regional Medical Center Parkway Campus",
  "type": "hospital",
  "address": "17 Roth Center",
  "department": 6
},{
  "_id": {
    "$oid": "61a39a873b0459c2b8c5c8b6"
  },
  "key": 144,
  "id": {
    "$oid": "61a399bcfc13ae40e500008f"
  },
  "GPS": {
    "latitude": 7.9632405,
    "longitude": 123.8751554
  },
  "city": "Tubod",
  "name": "Bullock County Hospital",
  "type": "hospital",
  "address": "10823 Northfield Court",
  "department": 5
},{
  "_id": {
    "$oid": "61a39a873b0459c2b8c5c8b7"
  },
  "key": 145,
  "id": {
    "$oid": "61a399bcfc13ae40e5000090"
  },
  "GPS": {
    "latitude": 44.7875436,
    "longitude": 19.4380057
  },
  "city": "Klenje",
  "name": "Gadsden Regional Medical Center",
  "type": "hospital",
  "address": "41 Prairie Rose Street",
  "department": 5
},{
  "_id": {
    "$oid": "61a39a873b0459c2b8c5c8b8"
  },
  "key": 146,
  "id": {
    "$oid": "61a399bcfc13ae40e5000091"
  },
  "GPS": {
    "latitude": 60.5381467,
    "longitude": 15.427113
  },
  "city": "Ljusdal",
  "name": "Alexandra Hospital Retail Pharmacy",
  "type": "pharmacy",
  "address": "36 7th Circle"
},{
  "_id": {
    "$oid": "61a39a873b0459c2b8c5c8b9"
  },
  "key": 147,
  "id": {
    "$oid": "61a399bcfc13ae40e5000092"
  },
  "GPS": {
    "latitude": 53.271709,
    "longitude": 16.4804071
  },
  "city": "Wałcz",
  "name": "Brookwood Baptist Medical Center",
  "type": "hospital",
  "address": "14263 Eastlawn Place",
  "department": 6
},{
  "_id": {
    "$oid": "61a39a873b0459c2b8c5c8ba"
  },
  "key": 148,
  "id": {
    "$oid": "61a399bcfc13ae40e5000093"
  },
  "GPS": {
    "latitude": -32.9760359,
    "longitude": -60.6499935
  },
  "city": "Corrientes",
  "name": "Dale Medical Center",
  "type": "hospital",
  "address": "6 Doe Crossing Avenue",
  "department": 8
},{
  "_id": {
    "$oid": "61a39a873b0459c2b8c5c8bb"
  },
  "key": 149,
  "id": {
    "$oid": "61a399bcfc13ae40e5000094"
  },
  "GPS": {
    "latitude": 58.6073483,
    "longitude": 14.0368868
  },
  "city": "Moholm",
  "name": "COVID CENTER 55",
  "type": "specialized center",
  "address": "0 Charing Cross Place"
},{
  "_id": {
    "$oid": "61a39a873b0459c2b8c5c8bc"
  },
  "key": 150,
  "id": {
    "$oid": "61a399bcfc13ae40e5000095"
  },
  "GPS": {
    "latitude": 49.9727767,
    "longitude": 21.5148018
  },
  "city": "Niedźwiada",
  "name": "Nishino Pharmacy (Takashimaya)",
  "type": "pharmacy",
  "address": "73 Prairieview Parkway"
},{
  "_id": {
    "$oid": "61a39a873b0459c2b8c5c8bd"
  },
  "key": 151,
  "id": {
    "$oid": "61a399bcfc13ae40e5000096"
  },
  "GPS": {
    "latitude": -6.2969238,
    "longitude": 106.9222137
  },
  "city": "Koronganayam",
  "name": "Bartlett Regional Hospital",
  "type": "hospital",
  "address": "88 Gulseth Parkway",
  "department": 10
},{
  "_id": {
    "$oid": "61a39a873b0459c2b8c5c8be"
  },
  "key": 152,
  "id": {
    "$oid": "61a399bcfc13ae40e5000097"
  },
  "GPS": {
    "latitude": -8.1487,
    "longitude": 111.6539
  },
  "city": "Timahankrajan",
  "name": "COVID CENTER 51",
  "type": "specialized center",
  "address": "06 Elgar Place"
},{
  "_id": {
    "$oid": "61a39a873b0459c2b8c5c8bf"
  },
  "key": 153,
  "id": {
    "$oid": "61a399bcfc13ae40e5000098"
  },
  "GPS": {
    "latitude": 35.86278,
    "longitude": 14.5075
  },
  "city": "Santa Luċija",
  "name": "Springhill Memorial Hospital",
  "type": "hospital",
  "address": "779 Erie Way",
  "department": 1
},{
  "_id": {
    "$oid": "61a39a873b0459c2b8c5c8c0"
  },
  "key": 154,
  "id": {
    "$oid": "61a399bcfc13ae40e5000099"
  },
  "GPS": {
    "latitude": 47.573689,
    "longitude": 34.8688115
  },
  "city": "Vyshchetarasivka",
  "name": "Pickens County Medical Center",
  "type": "hospital",
  "address": "82464 Amoth Place",
  "department": 9
},{
  "_id": {
    "$oid": "61a39a873b0459c2b8c5c8c1"
  },
  "key": 155,
  "id": {
    "$oid": "61a399bcfc13ae40e500009a"
  },
  "GPS": {
    "latitude": 50.367353,
    "longitude": 127.3305
  },
  "city": "Shangmachang",
  "name": "J Paul Jones Hospital",
  "type": "hospital",
  "address": "693 Harbort Drive",
  "department": 6
},{
  "_id": {
    "$oid": "61a39a873b0459c2b8c5c8c2"
  },
  "key": 156,
  "id": {
    "$oid": "61a399bcfc13ae40e500009b"
  },
  "GPS": {
    "latitude": -24.2670414,
    "longitude": -52.7241914
  },
  "city": "Boa Esperança",
  "name": "Yukon Kuskokwim Delta Reg Hospital",
  "type": "hospital",
  "address": "0 Clarendon Alley",
  "department": 4
},{
  "_id": {
    "$oid": "61a39a873b0459c2b8c5c8c3"
  },
  "key": 157,
  "id": {
    "$oid": "61a399bcfc13ae40e500009c"
  },
  "GPS": {
    "latitude": 14.5700525,
    "longitude": 121.021201
  },
  "city": "Upper San Mateo",
  "name": "Troy Regional Medical Center",
  "type": "hospital",
  "address": "55 Ludington Circle",
  "department": 9
},{
  "_id": {
    "$oid": "61a39a873b0459c2b8c5c8c4"
  },
  "key": 158,
  "id": {
    "$oid": "61a399bcfc13ae40e500009d"
  },
  "GPS": {
    "latitude": 48.0724737,
    "longitude": 7.3469006
  },
  "city": "Colmar",
  "name": "Providence Hospital",
  "type": "hospital",
  "address": "62 Lukken Circle",
  "department": 9
},{
  "_id": {
    "$oid": "61a39a873b0459c2b8c5c8c5"
  },
  "key": 159,
  "id": {
    "$oid": "61a399bcfc13ae40e500009e"
  },
  "GPS": {
    "latitude": 43.3667218,
    "longitude": -72.3412362
  },
  "city": "Mingcheng",
  "name": "Cullman Regional Medical Center",
  "type": "hospital",
  "address": "34684 Eastwood Terrace",
  "department": 3
},{
  "_id": {
    "$oid": "61a39a873b0459c2b8c5c8c6"
  },
  "key": 160,
  "id": {
    "$oid": "61a399bcfc13ae40e500009f"
  },
  "GPS": {
    "latitude": 5.84561,
    "longitude": 118.0570561
  },
  "city": "Sandakan",
  "name": "Scottsdale Osborn Medical Center",
  "type": "hospital",
  "address": "0 Tennessee Hill",
  "department": 9
},{
  "_id": {
    "$oid": "61a39a873b0459c2b8c5c8c7"
  },
  "key": 161,
  "id": {
    "$oid": "61a399bcfc13ae40e50000a0"
  },
  "GPS": {
    "latitude": 15.6122706,
    "longitude": -86.0784459
  },
  "city": "Zamora",
  "name": "Yavapai Regional Medical Center",
  "type": "hospital",
  "address": "99525 Burrows Pass",
  "department": 8
},{
  "_id": {
    "$oid": "61a39a873b0459c2b8c5c8c8"
  },
  "key": 162,
  "id": {
    "$oid": "61a399bcfc13ae40e50000a1"
  },
  "GPS": {
    "latitude": -9.2786495,
    "longitude": -36.6150136
  },
  "city": "Bom Conselho",
  "name": "Sitka Community Hospital",
  "type": "hospital",
  "address": "9101 Vahlen Point",
  "department": 10
},{
  "_id": {
    "$oid": "61a39a873b0459c2b8c5c8c9"
  },
  "key": 163,
  "id": {
    "$oid": "61a399bcfc13ae40e50000a2"
  },
  "GPS": {
    "latitude": 54.1,
    "longitude": 23.7
  },
  "city": "Veisiejai",
  "name": "University Of South Alabama Medical Center",
  "type": "hospital",
  "address": "8 Redwing Parkway",
  "department": 4
},{
  "_id": {
    "$oid": "61a39a873b0459c2b8c5c8ca"
  },
  "key": 164,
  "id": {
    "$oid": "61a399bcfc13ae40e50000a3"
  },
  "GPS": {
    "latitude": 52.3147542,
    "longitude": 22.8893801
  },
  "city": "Sarnaki",
  "name": "Northwest Medical Center",
  "type": "hospital",
  "address": "64 Lindbergh Road",
  "department": 9
},{
  "_id": {
    "$oid": "61a39a873b0459c2b8c5c8cb"
  },
  "key": 165,
  "id": {
    "$oid": "61a399bcfc13ae40e50000a4"
  },
  "GPS": {
    "latitude": 18.649728,
    "longitude": -68.6028341
  },
  "city": "Otra Banda",
  "name": "WATSONS PERSONAL CARE STORES (TIONG BAHRU PLAZA)",
  "type": "pharmacy",
  "address": "6068 Service Lane"
},{
  "_id": {
    "$oid": "61a39a873b0459c2b8c5c8cc"
  },
  "key": 166,
  "id": {
    "$oid": "61a399bcfc13ae40e50000a5"
  },
  "GPS": {
    "latitude": 38.8807023,
    "longitude": -77.1086041
  },
  "city": "Arlington",
  "name": "St Vincent's East",
  "type": "hospital",
  "address": "31114 Declaration Point",
  "department": 4
},{
  "_id": {
    "$oid": "61a39a873b0459c2b8c5c8cd"
  },
  "key": 167,
  "id": {
    "$oid": "61a399bcfc13ae40e50000a6"
  },
  "GPS": {
    "latitude": 23.156538,
    "longitude": 102.746704
  },
  "city": "Xinjiezhen",
  "name": "D C H Regional Medical Center",
  "type": "hospital",
  "address": "3 Forest Run Crossing",
  "department": 10
},{
  "_id": {
    "$oid": "61a39a873b0459c2b8c5c8ce"
  },
  "key": 168,
  "id": {
    "$oid": "61a399bcfc13ae40e50000a7"
  },
  "GPS": {
    "latitude": 18.1096868,
    "longitude": -95.8803869
  },
  "city": "Loma Bonita",
  "name": "WESTMEAD PHARMACY PTE LTD",
  "type": "pharmacy",
  "address": "751 Rutledge Crossing"
},{
  "_id": {
    "$oid": "61a39a873b0459c2b8c5c8cf"
  },
  "key": 169,
  "id": {
    "$oid": "61a399bcfc13ae40e50000a8"
  },
  "GPS": {
    "latitude": -10.0662772,
    "longitude": 38.9276622
  },
  "city": "Ruangwa",
  "name": "SINGHEALTH POLY-OUTRAM",
  "type": "pharmacy",
  "address": "8482 Shoshone Circle"
},{
  "_id": {
    "$oid": "61a39a873b0459c2b8c5c8d0"
  },
  "key": 170,
  "id": {
    "$oid": "61a399bcfc13ae40e50000a9"
  },
  "GPS": {
    "latitude": 29.272581,
    "longitude": 104.874073
  },
  "city": "Yantan",
  "name": "Mobile Infirmary Medical Center",
  "type": "hospital",
  "address": "784 Troy Parkway",
  "department": 3
},{
  "_id": {
    "$oid": "61a39a873b0459c2b8c5c8d1"
  },
  "key": 171,
  "id": {
    "$oid": "61a399bcfc13ae40e50000aa"
  },
  "GPS": {
    "latitude": -7.1684722,
    "longitude": 107.9833112
  },
  "city": "Samanggen",
  "name": "Thomas Hospital",
  "type": "hospital",
  "address": "4456 Dawn Junction",
  "department": 6
},{
  "_id": {
    "$oid": "61a39a873b0459c2b8c5c8d2"
  },
  "key": 172,
  "id": {
    "$oid": "61a399bcfc13ae40e50000ab"
  },
  "GPS": {
    "latitude": 38.4490819,
    "longitude": -9.1343145
  },
  "city": "Zambujal",
  "name": "COVID CENTER 34",
  "type": "specialized center",
  "address": "01958 Dottie Junction"
},{
  "_id": {
    "$oid": "61a39a873b0459c2b8c5c8d3"
  },
  "key": 173,
  "id": {
    "$oid": "61a399bcfc13ae40e50000ac"
  },
  "GPS": {
    "latitude": 43.9277535,
    "longitude": 2.1504611
  },
  "city": "Albi",
  "name": "Pacific Pharmacy Pte Ltd",
  "type": "pharmacy",
  "address": "59364 Dottie Avenue"
},{
  "_id": {
    "$oid": "61a39a873b0459c2b8c5c8d4"
  },
  "key": 174,
  "id": {
    "$oid": "61a399bcfc13ae40e50000ad"
  },
  "GPS": {
    "latitude": -16.0047799,
    "longitude": -41.2815064
  },
  "city": "Pedra Azul",
  "name": "COVID CENTER 7",
  "type": "specialized center",
  "address": "53329 Thierer Way"
},{
  "_id": {
    "$oid": "61a39a873b0459c2b8c5c8d5"
  },
  "key": 175,
  "id": {
    "$oid": "61a399bcfc13ae40e50000ae"
  },
  "GPS": {
    "latitude": 55.111901,
    "longitude": 83.8869856
  },
  "city": "Gornyy",
  "name": "COVID CENTER 47",
  "type": "specialized center",
  "address": "534 Moulton Street"
},{
  "_id": {
    "$oid": "61a39a873b0459c2b8c5c8d6"
  },
  "key": 176,
  "id": {
    "$oid": "61a399bcfc13ae40e50000af"
  },
  "GPS": {
    "latitude": 48.4990903,
    "longitude": 7.3118635
  },
  "city": "Schirmeck",
  "name": "Clay County Hospital",
  "type": "hospital",
  "address": "4 Gina Trail",
  "department": 3
},{
  "_id": {
    "$oid": "61a39a873b0459c2b8c5c8d7"
  },
  "key": 177,
  "id": {
    "$oid": "61a399bcfc13ae40e50000b0"
  },
  "GPS": {
    "latitude": 5.7098271,
    "longitude": 6.4343621
  },
  "city": "Kwale",
  "name": "COVID CENTER 5",
  "type": "specialized center",
  "address": "33345 Dryden Drive"
},{
  "_id": {
    "$oid": "61a39a873b0459c2b8c5c8d8"
  },
  "key": 178,
  "id": {
    "$oid": "61a399bcfc13ae40e50000b1"
  },
  "GPS": {
    "latitude": 3.5674986,
    "longitude": 98.9797467
  },
  "city": "Perbaungan",
  "name": "Mount Alvernia Hospital (Main Pharmacy)",
  "type": "pharmacy",
  "address": "10495 Erie Trail"
},{
  "_id": {
    "$oid": "61a39a873b0459c2b8c5c8d9"
  },
  "key": 179,
  "id": {
    "$oid": "61a399bcfc13ae40e50000b2"
  },
  "GPS": {
    "latitude": 59.2891092,
    "longitude": 18.0509133
  },
  "city": "Huddinge",
  "name": "Nishino Pharmacy (Takashimaya)",
  "type": "pharmacy",
  "address": "93351 Prairieview Center"
},{
  "_id": {
    "$oid": "61a39a873b0459c2b8c5c8da"
  },
  "key": 180,
  "id": {
    "$oid": "61a399bcfc13ae40e50000b3"
  },
  "GPS": {
    "latitude": 45.5244621,
    "longitude": 18.8418011
  },
  "city": "Sarvaš",
  "name": "COVID CENTER 58",
  "type": "specialized center",
  "address": "558 Chive Road"
},{
  "_id": {
    "$oid": "61a39a873b0459c2b8c5c8db"
  },
  "key": 181,
  "id": {
    "$oid": "61a399bcfc13ae40e50000b4"
  },
  "GPS": {
    "latitude": -8.1130067,
    "longitude": 112.0304508
  },
  "city": "Luntas",
  "name": "Essentials Pharmacy",
  "type": "pharmacy",
  "address": "0 Chive Parkway"
},{
  "_id": {
    "$oid": "61a39a873b0459c2b8c5c8dc"
  },
  "key": 182,
  "id": {
    "$oid": "61a399bcfc13ae40e50000b5"
  },
  "GPS": {
    "latitude": 5.1215877,
    "longitude": 7.3732655
  },
  "city": "Aba",
  "name": "NATIONAL UNIVERSITY HOSPITAL(S) PTE LTD (MEDICAL CENTRE PHARMACY)",
  "type": "pharmacy",
  "address": "372 Del Mar Plaza"
},{
  "_id": {
    "$oid": "61a39a873b0459c2b8c5c8dd"
  },
  "key": 183,
  "id": {
    "$oid": "61a399bcfc13ae40e50000b6"
  },
  "GPS": {
    "latitude": 22.405325,
    "longitude": 107.353437
  },
  "city": "Jiangzhou",
  "name": "PARKWAY EAST HOSPITAL PHARMACY",
  "type": "pharmacy",
  "address": "6063 Dahle Center"
},{
  "_id": {
    "$oid": "61a39a873b0459c2b8c5c8de"
  },
  "key": 184,
  "id": {
    "$oid": "61a399bcfc13ae40e50000b7"
  },
  "GPS": {
    "latitude": 14.6912206,
    "longitude": 121.109772
  },
  "city": "Pontevedra",
  "name": "Choctaw General Hospital",
  "type": "hospital",
  "address": "568 Old Shore Park",
  "department": 4
},{
  "_id": {
    "$oid": "61a39a873b0459c2b8c5c8df"
  },
  "key": 185,
  "id": {
    "$oid": "61a399bcfc13ae40e50000b8"
  },
  "GPS": {
    "latitude": 9.236872,
    "longitude": -75.723394
  },
  "city": "Purísima",
  "name": "Banner - University Medical Center Phoenix",
  "type": "hospital",
  "address": "70436 Stuart Street",
  "department": 3
},{
  "_id": {
    "$oid": "61a39a873b0459c2b8c5c8e0"
  },
  "key": 186,
  "id": {
    "$oid": "61a399bcfc13ae40e50000b9"
  },
  "GPS": {
    "latitude": 43.4945737,
    "longitude": 5.8978018
  },
  "city": "Paris 09",
  "name": "St Vincents Blount",
  "type": "hospital",
  "address": "88 Carberry Court",
  "department": 9
},{
  "_id": {
    "$oid": "61a39a873b0459c2b8c5c8e1"
  },
  "key": 187,
  "id": {
    "$oid": "61a399bcfc13ae40e50000ba"
  },
  "GPS": {
    "latitude": 31.7311971,
    "longitude": 117.2313179
  },
  "city": "Meilin",
  "name": "WATSONS PERSONAL CARE STORES (TIONG BAHRU PLAZA)",
  "type": "pharmacy",
  "address": "02 Stuart Street"
},{
  "_id": {
    "$oid": "61a39a873b0459c2b8c5c8e2"
  },
  "key": 188,
  "id": {
    "$oid": "61a399bcfc13ae40e50000bb"
  },
  "GPS": {
    "latitude": 41.8963254,
    "longitude": 45.5751086
  },
  "city": "Tsinandali",
  "name": "Evergreen Medical Center",
  "type": "hospital",
  "address": "3060 Carey Hill",
  "department": 9
},{
  "_id": {
    "$oid": "61a39a873b0459c2b8c5c8e3"
  },
  "key": 189,
  "id": {
    "$oid": "61a399bcfc13ae40e50000bc"
  },
  "GPS": {
    "latitude": -26.8039789,
    "longitude": -48.6489134
  },
  "city": "Penha",
  "name": "Mount Elizabeth Hospital",
  "type": "pharmacy",
  "address": "08 Express Drive"
},{
  "_id": {
    "$oid": "61a39a873b0459c2b8c5c8e4"
  },
  "key": 190,
  "id": {
    "$oid": "61a399bcfc13ae40e50000bd"
  },
  "GPS": {
    "latitude": -43.3937074,
    "longitude": 147.2679116
  },
  "city": "Baruny",
  "name": "KK Emergency Pharmacy",
  "type": "pharmacy",
  "address": "0402 Monument Lane"
},{
  "_id": {
    "$oid": "61a39a873b0459c2b8c5c8e5"
  },
  "key": 191,
  "id": {
    "$oid": "61a399bcfc13ae40e50000be"
  },
  "GPS": {
    "latitude": 32.0631839,
    "longitude": -102.0375564
  },
  "city": "Midland",
  "name": "Mount Elizabeth Hospital",
  "type": "pharmacy",
  "address": "21020 Mayfield Court"
},{
  "_id": {
    "$oid": "61a39a873b0459c2b8c5c8e6"
  },
  "key": 192,
  "id": {
    "$oid": "61a399bcfc13ae40e50000bf"
  },
  "GPS": {
    "latitude": -1.3750813,
    "longitude": 37.9952144
  },
  "city": "Kitui",
  "name": "COVID CENTER 8",
  "type": "specialized center",
  "address": "7590 Colorado Trail"
},{
  "_id": {
    "$oid": "61a39a873b0459c2b8c5c8e7"
  },
  "key": 193,
  "id": {
    "$oid": "61a399bcfc13ae40e50000c0"
  },
  "GPS": {
    "latitude": 40.2673498,
    "longitude": 19.6654188
  },
  "city": "Brataj",
  "name": "Pickens County Medical Center",
  "type": "hospital",
  "address": "3069 Magdeline Plaza",
  "department": 10
},{
  "_id": {
    "$oid": "61a39a873b0459c2b8c5c8e8"
  },
  "key": 194,
  "id": {
    "$oid": "61a399bcfc13ae40e50000c1"
  },
  "GPS": {
    "latitude": 31.297414,
    "longitude": 121.450653
  },
  "city": "Fubin",
  "name": "A.M. Pharmacy Pte Ltd",
  "type": "pharmacy",
  "address": "46972 Dennis Terrace"
},{
  "_id": {
    "$oid": "61a39a873b0459c2b8c5c8e9"
  },
  "key": 195,
  "id": {
    "$oid": "61a399bcfc13ae40e50000c2"
  },
  "GPS": {
    "latitude": 14.5272379,
    "longitude": -87.2157947
  },
  "city": "El Suyatal",
  "name": "Cullman Regional Medical Center",
  "type": "hospital",
  "address": "68762 Lyons Street",
  "department": 10
},{
  "_id": {
    "$oid": "61a39a873b0459c2b8c5c8ea"
  },
  "key": 196,
  "id": {
    "$oid": "61a399bcfc13ae40e50000c3"
  },
  "GPS": {
    "latitude": -8.8536444,
    "longitude": 31.3655989
  },
  "city": "Mbala",
  "name": "COVID CENTER 58",
  "type": "specialized center",
  "address": "6316 Dottie Park"
},{
  "_id": {
    "$oid": "61a39a873b0459c2b8c5c8eb"
  },
  "key": 197,
  "id": {
    "$oid": "61a399bcfc13ae40e50000c4"
  },
  "GPS": {
    "latitude": 49.35253,
    "longitude": 16.4024121
  },
  "city": "Předklášteří",
  "name": "Helen Keller Memorial Hospital",
  "type": "hospital",
  "address": "59846 Kensington Avenue",
  "department": 3
},{
  "_id": {
    "$oid": "61a39a873b0459c2b8c5c8ec"
  },
  "key": 198,
  "id": {
    "$oid": "61a399bcfc13ae40e50000c5"
  },
  "GPS": {
    "latitude": 46.3940407,
    "longitude": 14.4979088
  },
  "city": "Zgornje Jezersko",
  "name": "ALPS PHARMACY",
  "type": "pharmacy",
  "address": "01 Spohn Terrace"
},{
  "_id": {
    "$oid": "61a39a873b0459c2b8c5c8ed"
  },
  "key": 199,
  "id": {
    "$oid": "61a399bcfc13ae40e50000c6"
  },
  "GPS": {
    "latitude": 54.7288441,
    "longitude": 37.5438564
  },
  "city": "Rozhdestveno",
  "name": "East Alabama Medical Center",
  "type": "hospital",
  "address": "105 Summerview Place",
  "department": 7
},{
  "_id": {
    "$oid": "61a39a873b0459c2b8c5c8ee"
  },
  "key": 200,
  "id": {
    "$oid": "61a399bcfc13ae40e50000c7"
  },
  "GPS": {
    "latitude": 31.04565,
    "longitude": 121.409039
  },
  "city": "Niuzhuang",
  "name": "Evergreen Medical Center",
  "type": "hospital",
  "address": "95738 Forest Dale Court",
  "department": 8
},{
  "_id": {
    "$oid": "61a39a873b0459c2b8c5c8ef"
  },
  "key": 201,
  "id": {
    "$oid": "61a399bcfc13ae40e50000c8"
  },
  "GPS": {
    "latitude": 33.626149,
    "longitude": 114.69695
  },
  "city": "Zhoukou",
  "name": "Cullman Regional Medical Center",
  "type": "hospital",
  "address": "4736 2nd Trail",
  "department": 4
},{
  "_id": {
    "$oid": "61a39a873b0459c2b8c5c8f0"
  },
  "key": 202,
  "id": {
    "$oid": "61a399bcfc13ae40e50000c9"
  },
  "GPS": {
    "latitude": 29.1893104,
    "longitude": 54.3139277
  },
  "city": "Neyrīz",
  "name": "Jack Hughston Memorial Hospital",
  "type": "hospital",
  "address": "089 Ludington Place",
  "department": 3
},{
  "_id": {
    "$oid": "61a39a873b0459c2b8c5c8f1"
  },
  "key": 203,
  "id": {
    "$oid": "61a399bcfc13ae40e50000ca"
  },
  "GPS": {
    "latitude": 39.2298803,
    "longitude": -8.6901131
  },
  "city": "Santarém",
  "name": "NATIONAL CANCER CENTRE PHARMACY (LEVEL 1)",
  "type": "pharmacy",
  "address": "27 Dottie Alley"
},{
  "_id": {
    "$oid": "61a39a873b0459c2b8c5c8f2"
  },
  "key": 204,
  "id": {
    "$oid": "61a399bcfc13ae40e50000cb"
  },
  "GPS": {
    "latitude": -8.1968847,
    "longitude": 112.5304693
  },
  "city": "Gampingan",
  "name": "COVID CENTER 19",
  "type": "specialized center",
  "address": "066 Londonderry Crossing"
},{
  "_id": {
    "$oid": "61a39a873b0459c2b8c5c8f3"
  },
  "key": 205,
  "id": {
    "$oid": "61a399bcfc13ae40e50000cc"
  },
  "GPS": {
    "latitude": 24.848984,
    "longitude": 116.604574
  },
  "city": "Rentian",
  "name": "Sitka Community Hospital",
  "type": "hospital",
  "address": "55 Fair Oaks Way",
  "department": 2
},{
  "_id": {
    "$oid": "61a39a873b0459c2b8c5c8f4"
  },
  "key": 206,
  "id": {
    "$oid": "61a399bcfc13ae40e50000cd"
  },
  "GPS": {
    "latitude": 30.69,
    "longitude": -88.06
  },
  "city": "Mobile",
  "name": "Thomas Hospital",
  "type": "hospital",
  "address": "82 Prairie Rose Crossing",
  "department": 3
},{
  "_id": {
    "$oid": "61a39a873b0459c2b8c5c8f5"
  },
  "key": 207,
  "id": {
    "$oid": "61a399bcfc13ae40e50000ce"
  },
  "GPS": {
    "latitude": 39.7028389,
    "longitude": 141.1515091
  },
  "city": "Uchimaru",
  "name": "Jack Hughston Memorial Hospital",
  "type": "hospital",
  "address": "51 Golf View Park",
  "department": 5
},{
  "_id": {
    "$oid": "61a39a873b0459c2b8c5c8f6"
  },
  "key": 208,
  "id": {
    "$oid": "61a399bcfc13ae40e50000cf"
  },
  "GPS": {
    "latitude": 28.1328796,
    "longitude": -15.4393074
  },
  "city": "Palmas De Gran Canaria, Las",
  "name": "Alchemy Pharmacy",
  "type": "pharmacy",
  "address": "7 Shelley Point"
},{
  "_id": {
    "$oid": "61a39a873b0459c2b8c5c8f7"
  },
  "key": 209,
  "id": {
    "$oid": "61a399bcfc13ae40e50000d0"
  },
  "GPS": {
    "latitude": 24.705643,
    "longitude": 118.43196
  },
  "city": "Shuitou",
  "name": "Floyd Cherokee Medical Center",
  "type": "hospital",
  "address": "47 Schlimgen Point",
  "department": 7
},{
  "_id": {
    "$oid": "61a39a873b0459c2b8c5c8f8"
  },
  "key": 210,
  "id": {
    "$oid": "61a399bcfc13ae40e50000d1"
  },
  "GPS": {
    "latitude": 60.2267401,
    "longitude": 20.3244146
  },
  "city": "Vårdö",
  "name": "St Vincent's East",
  "type": "hospital",
  "address": "36 Lakewood Avenue",
  "department": 5
},{
  "_id": {
    "$oid": "61a39a873b0459c2b8c5c8f9"
  },
  "key": 211,
  "id": {
    "$oid": "61a399bcfc13ae40e50000d2"
  },
  "GPS": {
    "latitude": 41.805699,
    "longitude": 123.431472
  },
  "city": "Shentang",
  "name": "ST ANDREW'S COMMUNITY HOSPITAL PHARMACY",
  "type": "pharmacy",
  "address": "9526 Manufacturers Trail"
},{
  "_id": {
    "$oid": "61a39a873b0459c2b8c5c8fa"
  },
  "key": 212,
  "id": {
    "$oid": "61a399bcfc13ae40e50000d3"
  },
  "GPS": {
    "latitude": 27.6498409,
    "longitude": 83.8897057
  },
  "city": "Nawal",
  "name": "Alexandra Hospital Retail Pharmacy",
  "type": "pharmacy",
  "address": "12303 Stephen Pass"
},{
  "_id": {
    "$oid": "61a39a873b0459c2b8c5c8fb"
  },
  "key": 213,
  "id": {
    "$oid": "61a399bcfc13ae40e50000d4"
  },
  "GPS": {
    "latitude": 12.9290069,
    "longitude": -85.9151211
  },
  "city": "Matagalpa",
  "name": "Fayette Medical Center",
  "type": "hospital",
  "address": "504 Bonner Hill",
  "department": 6
},{
  "_id": {
    "$oid": "61a39a873b0459c2b8c5c8fc"
  },
  "key": 214,
  "id": {
    "$oid": "61a399bcfc13ae40e50000d5"
  },
  "GPS": {
    "latitude": 30.1902447,
    "longitude": 31.1384342
  },
  "city": "Al Qanāţir al Khayrīyah",
  "name": "WATSON'S PERSONAL CARE STORES PTE LTD (WATERWAY POINT)",
  "type": "pharmacy",
  "address": "437 Roxbury Lane"
},{
  "_id": {
    "$oid": "61a39a873b0459c2b8c5c8fd"
  },
  "key": 215,
  "id": {
    "$oid": "61a399bcfc13ae40e50000d6"
  },
  "GPS": {
    "latitude": 33.9345904,
    "longitude": 49.4008633
  },
  "city": "Shāzand",
  "name": "Callahan Eye Hospital",
  "type": "hospital",
  "address": "4 Roxbury Alley",
  "department": 6
},{
  "_id": {
    "$oid": "61a39a873b0459c2b8c5c8fe"
  },
  "key": 216,
  "id": {
    "$oid": "61a399bcfc13ae40e50000d7"
  },
  "GPS": {
    "latitude": 48.589056,
    "longitude": 2.2458778
  },
  "city": "Arpajon",
  "name": "COVID CENTER 9",
  "type": "specialized center",
  "address": "717 Charing Cross Parkway"
},{
  "_id": {
    "$oid": "61a39a873b0459c2b8c5c8ff"
  },
  "key": 217,
  "id": {
    "$oid": "61a399bcfc13ae40e50000d8"
  },
  "GPS": {
    "latitude": -9.1113278,
    "longitude": -35.958777
  },
  "city": "União dos Palmares",
  "name": "Kanakanak Hospital",
  "type": "hospital",
  "address": "92 Kingsford Way",
  "department": 3
},{
  "_id": {
    "$oid": "61a39a873b0459c2b8c5c900"
  },
  "key": 218,
  "id": {
    "$oid": "61a399bcfc13ae40e50000d9"
  },
  "GPS": {
    "latitude": 38.0339984,
    "longitude": 23.7379786
  },
  "city": "Néa Filadélfeia",
  "name": "THE DENTAL PHARM",
  "type": "pharmacy",
  "address": "646 Magdeline Drive"
},{
  "_id": {
    "$oid": "61a39a873b0459c2b8c5c901"
  },
  "key": 219,
  "id": {
    "$oid": "61a399bcfc13ae40e50000da"
  },
  "GPS": {
    "latitude": -16.3081637,
    "longitude": -41.4812771
  },
  "city": "Medina",
  "name": "Pharmacy Services Centre NHG (Blk 9)",
  "type": "pharmacy",
  "address": "3 Johnson Junction"
},{
  "_id": {
    "$oid": "61a39a873b0459c2b8c5c902"
  },
  "key": 220,
  "id": {
    "$oid": "61a399bcfc13ae40e50000db"
  },
  "GPS": {
    "latitude": -8.2334215,
    "longitude": 114.3787108
  },
  "city": "Kertosari",
  "name": "Scottsdale Osborn Medical Center",
  "type": "hospital",
  "address": "6189 Independence Junction",
  "department": 2
},{
  "_id": {
    "$oid": "61a39a873b0459c2b8c5c903"
  },
  "key": 221,
  "id": {
    "$oid": "61a399bcfc13ae40e50000dc"
  },
  "GPS": {
    "latitude": 30.235005,
    "longitude": 116.475481
  },
  "city": "Fengshuling",
  "name": "D C H Regional Medical Center",
  "type": "hospital",
  "address": "8 Larry Drive",
  "department": 6
},{
  "_id": {
    "$oid": "61a39a873b0459c2b8c5c904"
  },
  "key": 222,
  "id": {
    "$oid": "61a399bcfc13ae40e50000dd"
  },
  "GPS": {
    "latitude": 31.8239619,
    "longitude": 49.8700862
  },
  "city": "Īz̄eh",
  "name": "MUSTAFA PHARMACY",
  "type": "pharmacy",
  "address": "4 Columbus Way"
},{
  "_id": {
    "$oid": "61a39a873b0459c2b8c5c905"
  },
  "key": 223,
  "id": {
    "$oid": "61a399bcfc13ae40e50000de"
  },
  "GPS": {
    "latitude": 15.7832452,
    "longitude": 121.0086436
  },
  "city": "Palestina",
  "name": "COVID CENTER 23",
  "type": "specialized center",
  "address": "92259 Namekagon Way"
},{
  "_id": {
    "$oid": "61a39a873b0459c2b8c5c906"
  },
  "key": 224,
  "id": {
    "$oid": "61a399bcfc13ae40e50000df"
  },
  "GPS": {
    "latitude": 23.36225,
    "longitude": 103.374576
  },
  "city": "Honghe",
  "name": "MOUNT ELIZABETH NOVENA HOSPITAL PHARMACY",
  "type": "pharmacy",
  "address": "6 Memorial Avenue"
},{
  "_id": {
    "$oid": "61a39a873b0459c2b8c5c907"
  },
  "key": 225,
  "id": {
    "$oid": "61a399bcfc13ae40e50000e0"
  },
  "GPS": {
    "latitude": -6.97,
    "longitude": 113.2718
  },
  "city": "Kemiri Daya",
  "name": "MT ALVERNIA HOSPITAL RETAIL PHARMACY",
  "type": "pharmacy",
  "address": "58231 Green Alley"
},{
  "_id": {
    "$oid": "61a39a873b0459c2b8c5c908"
  },
  "key": 226,
  "id": {
    "$oid": "61a399bcfc13ae40e50000e1"
  },
  "GPS": {
    "latitude": 31.842209,
    "longitude": 117.329247
  },
  "city": "Zhuhong",
  "name": "L V Stabler Memorial Hospital",
  "type": "hospital",
  "address": "49 Huxley Trail",
  "department": 4
},{
  "_id": {
    "$oid": "61a39a873b0459c2b8c5c909"
  },
  "key": 227,
  "id": {
    "$oid": "61a399bcfc13ae40e50000e2"
  },
  "GPS": {
    "latitude": -6.8380439,
    "longitude": 111.4901903
  },
  "city": "Dowan",
  "name": "SGH OUTPATIENT PHARMACY (BLK 3)",
  "type": "pharmacy",
  "address": "5 Mayer Road"
},{
  "_id": {
    "$oid": "61a39a873b0459c2b8c5c90a"
  },
  "key": 228,
  "id": {
    "$oid": "61a399bcfc13ae40e50000e3"
  },
  "GPS": {
    "latitude": 35.8784374,
    "longitude": 139.6119289
  },
  "city": "Hachiōji",
  "name": "Essentials Pharmacy",
  "type": "pharmacy",
  "address": "5 Dennis Crossing"
},{
  "_id": {
    "$oid": "61a39a873b0459c2b8c5c90b"
  },
  "key": 229,
  "id": {
    "$oid": "61a399bcfc13ae40e50000e4"
  },
  "GPS": {
    "latitude": -15.7524721,
    "longitude": 26.4370933
  },
  "city": "Namwala",
  "name": "Marion Regional Medical Center",
  "type": "hospital",
  "address": "90 Talmadge Road",
  "department": 10
},{
  "_id": {
    "$oid": "61a39a873b0459c2b8c5c90c"
  },
  "key": 230,
  "id": {
    "$oid": "61a399bcfc13ae40e50000e5"
  },
  "GPS": {
    "latitude": -23.2652376,
    "longitude": -47.2997218
  },
  "city": "Itu",
  "name": "Maricopa Medical Center",
  "type": "hospital",
  "address": "374 Sommers Junction",
  "department": 10
},{
  "_id": {
    "$oid": "61a39a873b0459c2b8c5c90d"
  },
  "key": 231,
  "id": {
    "$oid": "61a399bcfc13ae40e50000e6"
  },
  "GPS": {
    "latitude": 41.8760133,
    "longitude": 72.9401509
  },
  "city": "Toktogul",
  "name": "WATSON'S PERSONAL CARE STORES PTE LTD (WATERWAY POINT)",
  "type": "pharmacy",
  "address": "2964 Westridge Way"
},{
  "_id": {
    "$oid": "61a39a873b0459c2b8c5c90e"
  },
  "key": 232,
  "id": {
    "$oid": "61a399bcfc13ae40e50000e7"
  },
  "GPS": {
    "latitude": 37.955893,
    "longitude": 23.7020975
  },
  "city": "Kallithéa",
  "name": "KK Emergency Pharmacy",
  "type": "pharmacy",
  "address": "0 Debra Plaza"
},{
  "_id": {
    "$oid": "61a39a873b0459c2b8c5c90f"
  },
  "key": 233,
  "id": {
    "$oid": "61a399bcfc13ae40e50000e8"
  },
  "GPS": {
    "latitude": 34.8838824,
    "longitude": 136.870408
  },
  "city": "Tokoname",
  "name": "COVID CENTER 44",
  "type": "specialized center",
  "address": "90791 Fieldstone Point"
},{
  "_id": {
    "$oid": "61a39a873b0459c2b8c5c910"
  },
  "key": 234,
  "id": {
    "$oid": "61a399bcfc13ae40e50000e9"
  },
  "GPS": {
    "latitude": 13.8513777,
    "longitude": 100.5635071
  },
  "city": "Don Mueang",
  "name": "COVID CENTER 52",
  "type": "specialized center",
  "address": "586 Ohio Way"
},{
  "_id": {
    "$oid": "61a39a873b0459c2b8c5c911"
  },
  "key": 235,
  "id": {
    "$oid": "61a399bcfc13ae40e50000ea"
  },
  "GPS": {
    "latitude": 13.336458,
    "longitude": 121.275353
  },
  "city": "Nagiba",
  "name": "Monroe County Hospital",
  "type": "hospital",
  "address": "32 Roth Place",
  "department": 10
},{
  "_id": {
    "$oid": "61a39a873b0459c2b8c5c912"
  },
  "key": 236,
  "id": {
    "$oid": "61a399bcfc13ae40e50000eb"
  },
  "GPS": {
    "latitude": 34.4911201,
    "longitude": 62.6031004
  },
  "city": "Karukh",
  "name": "COVID CENTER 60",
  "type": "specialized center",
  "address": "81358 Center Junction"
},{
  "_id": {
    "$oid": "61a39a873b0459c2b8c5c913"
  },
  "key": 237,
  "id": {
    "$oid": "61a399bcfc13ae40e50000ec"
  },
  "GPS": {
    "latitude": 29.287939,
    "longitude": 121.429477
  },
  "city": "Ninghai",
  "name": "Samuel Simmonds Memorial Hospital",
  "type": "hospital",
  "address": "38305 Northfield Center",
  "department": 3
},{
  "_id": {
    "$oid": "61a39a873b0459c2b8c5c914"
  },
  "key": 238,
  "id": {
    "$oid": "61a399bcfc13ae40e50000ed"
  },
  "GPS": {
    "latitude": 10.1819305,
    "longitude": -67.5082709
  },
  "city": "Santa Cruz",
  "name": "COVID CENTER 46",
  "type": "specialized center",
  "address": "0 Lien Way"
},{
  "_id": {
    "$oid": "61a39a873b0459c2b8c5c915"
  },
  "key": 239,
  "id": {
    "$oid": "61a399bcfc13ae40e50000ee"
  },
  "GPS": {
    "latitude": 49.9481168,
    "longitude": 14.6774529
  },
  "city": "Strančice",
  "name": "WATSONS PERSONAL CARE STORES (TIONG BAHRU PLAZA)",
  "type": "pharmacy",
  "address": "9 Rigney Trail"
},{
  "_id": {
    "$oid": "61a39a873b0459c2b8c5c916"
  },
  "key": 240,
  "id": {
    "$oid": "61a399bcfc13ae40e50000ef"
  },
  "GPS": {
    "latitude": 54.3191956,
    "longitude": 62.5910092
  },
  "city": "Troitsk",
  "name": "COVID CENTER 50",
  "type": "specialized center",
  "address": "68 Fordem Court"
},{
  "_id": {
    "$oid": "61a39a873b0459c2b8c5c917"
  },
  "key": 241,
  "id": {
    "$oid": "61a399bcfc13ae40e50000f0"
  },
  "GPS": {
    "latitude": 30.673618,
    "longitude": 118.382379
  },
  "city": "Youzha",
  "name": "Jurong Medical Centre Pharmacy",
  "type": "pharmacy",
  "address": "32563 Graceland Junction"
},{
  "_id": {
    "$oid": "61a39a873b0459c2b8c5c918"
  },
  "key": 242,
  "id": {
    "$oid": "61a399bcfc13ae40e50000f1"
  },
  "GPS": {
    "latitude": 57.2528644,
    "longitude": 16.4754832
  },
  "city": "Oskarshamn",
  "name": "Dekalb Regional Medical Center",
  "type": "hospital",
  "address": "482 Vahlen Pass",
  "department": 10
},{
  "_id": {
    "$oid": "61a39a873b0459c2b8c5c919"
  },
  "key": 243,
  "id": {
    "$oid": "61a399bcfc13ae40e50000f2"
  },
  "GPS": {
    "latitude": 41.448315,
    "longitude": -8.7482341
  },
  "city": "Estela",
  "name": "Mt Edgecumbe Hospital",
  "type": "hospital",
  "address": "32466 Linden Way",
  "department": 4
},{
  "_id": {
    "$oid": "61a39a873b0459c2b8c5c91a"
  },
  "key": 244,
  "id": {
    "$oid": "61a399bcfc13ae40e50000f3"
  },
  "GPS": {
    "latitude": 23.0668254,
    "longitude": 113.2996685
  },
  "city": "Yingcui",
  "name": "NATIONAL CANCER CENTRE PHARMACY (LEVEL 1)",
  "type": "pharmacy",
  "address": "2601 Upham Terrace"
},{
  "_id": {
    "$oid": "61a39a873b0459c2b8c5c91b"
  },
  "key": 245,
  "id": {
    "$oid": "61a399bcfc13ae40e50000f4"
  },
  "GPS": {
    "latitude": 31.364902,
    "longitude": 108.249509
  },
  "city": "Daoqiao",
  "name": "COVID CENTER 10",
  "type": "specialized center",
  "address": "97 Killdeer Crossing"
},{
  "_id": {
    "$oid": "61a39a873b0459c2b8c5c91c"
  },
  "key": 246,
  "id": {
    "$oid": "61a399bcfc13ae40e50000f5"
  },
  "GPS": {
    "latitude": 31.09913,
    "longitude": 121.407386
  },
  "city": "Meilong",
  "name": "Callahan Eye Hospital",
  "type": "hospital",
  "address": "2806 Sommers Center",
  "department": 1
},{
  "_id": {
    "$oid": "61a39a873b0459c2b8c5c91d"
  },
  "key": 247,
  "id": {
    "$oid": "61a399bcfc13ae40e50000f6"
  },
  "GPS": {
    "latitude": -18.4943258,
    "longitude": -40.4657826
  },
  "city": "Nova Venécia",
  "name": "Haematology Pharmacy (Block 7)",
  "type": "pharmacy",
  "address": "0 Brentwood Junction"
},{
  "_id": {
    "$oid": "61a39a873b0459c2b8c5c91e"
  },
  "key": 248,
  "id": {
    "$oid": "61a399bcfc13ae40e50000f7"
  },
  "GPS": {
    "latitude": 27.318852,
    "longitude": 115.444319
  },
  "city": "Yongfeng",
  "name": "St. Mary's Hospital",
  "type": "hospital",
  "address": "254 Bowman Plaza",
  "department": 3
},{
  "_id": {
    "$oid": "61a39a873b0459c2b8c5c91f"
  },
  "key": 249,
  "id": {
    "$oid": "61a399bcfc13ae40e50000f8"
  },
  "GPS": {
    "latitude": 43.525311,
    "longitude": 125.664662
  },
  "city": "Shuangyang",
  "name": "Walker Baptist Medical Center",
  "type": "hospital",
  "address": "11 Haas Crossing",
  "department": 5
},{
  "_id": {
    "$oid": "61a39a873b0459c2b8c5c920"
  },
  "key": 250,
  "id": {
    "$oid": "61a399bcfc13ae40e50000f9"
  },
  "GPS": {
    "latitude": 46.948612,
    "longitude": 18.95016
  },
  "city": "Dunaújváros",
  "name": "ST ANDREW'S COMMUNITY HOSPITAL PHARMACY",
  "type": "pharmacy",
  "address": "3223 Hovde Pass"
},{
  "_id": {
    "$oid": "61a39a873b0459c2b8c5c921"
  },
  "key": 251,
  "id": {
    "$oid": "61a399bcfc13ae40e50000fa"
  },
  "GPS": {
    "latitude": -22.8450713,
    "longitude": -45.4874873
  },
  "city": "Pindamonhangaba",
  "name": "COVID CENTER 38",
  "type": "specialized center",
  "address": "6 Prairie Rose Trail"
},{
  "_id": {
    "$oid": "61a39a873b0459c2b8c5c922"
  },
  "key": 252,
  "id": {
    "$oid": "61a399bcfc13ae40e50000fb"
  },
  "GPS": {
    "latitude": 22.2016816,
    "longitude": -97.8367954
  },
  "city": "Benito Juarez",
  "name": "Kanakanak Hospital",
  "type": "hospital",
  "address": "9200 Express Trail",
  "department": 9
},{
  "_id": {
    "$oid": "61a39a873b0459c2b8c5c923"
  },
  "key": 253,
  "id": {
    "$oid": "61a399bcfc13ae40e50000fc"
  },
  "GPS": {
    "latitude": -38.9126083,
    "longitude": -67.976045
  },
  "city": "Chichinales",
  "name": "GRACE HEALTHCARE",
  "type": "pharmacy",
  "address": "44477 Service Court"
},{
  "_id": {
    "$oid": "61a39a873b0459c2b8c5c924"
  },
  "key": 254,
  "id": {
    "$oid": "61a399bcfc13ae40e50000fd"
  },
  "GPS": {
    "latitude": 14.0654264,
    "longitude": 100.6473542
  },
  "city": "Khlong Luang",
  "name": "A.M. Pharmacy Pte Ltd",
  "type": "pharmacy",
  "address": "3 Carey Park"
},{
  "_id": {
    "$oid": "61a39a873b0459c2b8c5c925"
  },
  "key": 255,
  "id": {
    "$oid": "61a399bcfc13ae40e50000fe"
  },
  "GPS": {
    "latitude": 52.7989429,
    "longitude": 16.7343548
  },
  "city": "Połajewo",
  "name": "SMITH PHARMACY PTE LTD",
  "type": "pharmacy",
  "address": "902 Rutledge Avenue"
},{
  "_id": {
    "$oid": "61a39a873b0459c2b8c5c926"
  },
  "key": 256,
  "id": {
    "$oid": "61a399bcfc13ae40e50000ff"
  },
  "GPS": {
    "latitude": 36.618719,
    "longitude": 100.277557
  },
  "city": "Jiangxigou",
  "name": "Providence Seward Hospital",
  "type": "hospital",
  "address": "9766 Kim Park",
  "department": 4
},{
  "_id": {
    "$oid": "61a39a873b0459c2b8c5c927"
  },
  "key": 257,
  "id": {
    "$oid": "61a399bcfc13ae40e5000100"
  },
  "GPS": {
    "latitude": -19.8446577,
    "longitude": -43.9551381
  },
  "city": "Granja",
  "name": "Admiralty Medical Centre Pharmacy",
  "type": "pharmacy",
  "address": "40 Green Ridge Park"
},{
  "_id": {
    "$oid": "61a39a873b0459c2b8c5c928"
  },
  "key": 258,
  "id": {
    "$oid": "61a399bcfc13ae40e5000101"
  },
  "GPS": {
    "latitude": 4.4279197,
    "longitude": -7.3570576
  },
  "city": "Tabou",
  "name": "COVID CENTER 38",
  "type": "specialized center",
  "address": "2545 Raven Place"
},{
  "_id": {
    "$oid": "61a39a873b0459c2b8c5c929"
  },
  "key": 259,
  "id": {
    "$oid": "61a399bcfc13ae40e5000102"
  },
  "GPS": {
    "latitude": 29.270311,
    "longitude": 88.880492
  },
  "city": "Chengnan",
  "name": "COVID CENTER 48",
  "type": "specialized center",
  "address": "89958 Bluestem Lane"
},{
  "_id": {
    "$oid": "61a39a873b0459c2b8c5c92a"
  },
  "key": 260,
  "id": {
    "$oid": "61a399bcfc13ae40e5000103"
  },
  "GPS": {
    "latitude": 55.1952113,
    "longitude": 32.4000893
  },
  "city": "Dukhovshchina",
  "name": "Lake Martin Community Hospital",
  "type": "hospital",
  "address": "28 Esker Street",
  "department": 2
},{
  "_id": {
    "$oid": "61a39a873b0459c2b8c5c92b"
  },
  "key": 261,
  "id": {
    "$oid": "61a399bcfc13ae40e5000104"
  },
  "GPS": {
    "latitude": 11.940477,
    "longitude": -86.1878899
  },
  "city": "La Concepción",
  "name": "SINGAPORE NATIONAL EYE CENTRE PTE LTD",
  "type": "pharmacy",
  "address": "668 Kingsford Lane"
},{
  "_id": {
    "$oid": "61a39a873b0459c2b8c5c92c"
  },
  "key": 262,
  "id": {
    "$oid": "61a399bcfc13ae40e5000105"
  },
  "GPS": {
    "latitude": 37.4132997,
    "longitude": 23.125332
  },
  "city": "Koilás",
  "name": "UrbanRx Compounding Pharmacy Pte Ltd",
  "type": "pharmacy",
  "address": "77439 Summerview Street"
},{
  "_id": {
    "$oid": "61a39a873b0459c2b8c5c92d"
  },
  "key": 263,
  "id": {
    "$oid": "61a399bcfc13ae40e5000106"
  },
  "GPS": {
    "latitude": 28.953619,
    "longitude": 111.70719
  },
  "city": "Deshan",
  "name": "Eliza Coffee Memorial Hospital",
  "type": "hospital",
  "address": "502 Ramsey Center",
  "department": 2
},{
  "_id": {
    "$oid": "61a39a873b0459c2b8c5c92e"
  },
  "key": 264,
  "id": {
    "$oid": "61a399bcfc13ae40e5000107"
  },
  "GPS": {
    "latitude": 22.5341348,
    "longitude": 114.1162219
  },
  "city": "Dianfang",
  "name": "Verde Valley Medical Center",
  "type": "hospital",
  "address": "01 Ridge Oak Alley",
  "department": 1
},{
  "_id": {
    "$oid": "61a39a873b0459c2b8c5c92f"
  },
  "key": 265,
  "id": {
    "$oid": "61a399bcfc13ae40e5000108"
  },
  "GPS": {
    "latitude": -6.9870354,
    "longitude": 107.7547383
  },
  "city": "Bojongloa",
  "name": "Raffles Health Holland V",
  "type": "pharmacy",
  "address": "33233 Bowman Way"
},{
  "_id": {
    "$oid": "61a39a873b0459c2b8c5c930"
  },
  "key": 266,
  "id": {
    "$oid": "61a399bcfc13ae40e5000109"
  },
  "GPS": {
    "latitude": 53.7776927,
    "longitude": 15.8278204
  },
  "city": "Świdwin",
  "name": "Nishino Pharmacy (Shaw House)",
  "type": "pharmacy",
  "address": "444 Amoth Pass"
},{
  "_id": {
    "$oid": "61a39a873b0459c2b8c5c931"
  },
  "key": 267,
  "id": {
    "$oid": "61a399bcfc13ae40e500010a"
  },
  "GPS": {
    "latitude": 65.8261477,
    "longitude": 21.7037935
  },
  "city": "Boden",
  "name": "COVID CENTER 21",
  "type": "specialized center",
  "address": "6064 Clemons Plaza"
},{
  "_id": {
    "$oid": "61a39a873b0459c2b8c5c932"
  },
  "key": 268,
  "id": {
    "$oid": "61a399bcfc13ae40e500010b"
  },
  "GPS": {
    "latitude": -9.710143,
    "longitude": -35.897056
  },
  "city": "Marechal Deodoro",
  "name": "COVID CENTER 4",
  "type": "specialized center",
  "address": "6 Almo Terrace"
},{
  "_id": {
    "$oid": "61a39a873b0459c2b8c5c933"
  },
  "key": 269,
  "id": {
    "$oid": "61a399bcfc13ae40e500010c"
  },
  "GPS": {
    "latitude": 39.6900895,
    "longitude": 115.9298599
  },
  "city": "Zhoukoudian",
  "name": "Marshall Medical Center South",
  "type": "hospital",
  "address": "58354 Memorial Plaza",
  "department": 2
},{
  "_id": {
    "$oid": "61a39a873b0459c2b8c5c934"
  },
  "key": 270,
  "id": {
    "$oid": "61a399bcfc13ae40e500010d"
  },
  "GPS": {
    "latitude": 50.5837638,
    "longitude": 34.4904643
  },
  "city": "Lebedyn",
  "name": "COVID CENTER 54",
  "type": "specialized center",
  "address": "2 Boyd Parkway"
}]